<?xml version="1.0" encoding="UTF-8"?>
<kml xmlns="http://www.opengis.net/kml/2.2">
<Document>
<name>4sq2autogen4gmaps_2024_08_22.kml</name>
<Style id="icon-1899-097138-labelson-nodesc">
<IconStyle>
<color>ff387109</color>
<scale>1</scale>
<Icon>
<href>https://www.gstatic.com/mapspro/images/stock/503-wht-blank_maps.png</href>
</Icon>
<hotSpot x="32" xunits="pixels" y="64" yunits="insetPixels"/>
</IconStyle>
<BalloonStyle>
<text><![CDATA[<h3>$[name]</h3>]]></text>
</BalloonStyle>
</Style>
<Placemark>
<name>Tesco parkoló</name>
<styleUrl>#icon-1899-097138-labelson-nodesc</styleUrl>
<Point>
<coordinates>
18.9648699760437,47.45116333743952
</coordinates>
</Point>
</Placemark>
<Placemark>
<name>Balaton Beach</name>
<styleUrl>#icon-1899-097138-labelson-nodesc</styleUrl>
<Point>
<coordinates>
18.063368316618806,46.91374317174221
</coordinates>
</Point>
</Placemark>
<Placemark>
<name>Kálvin Kebap Restaurant</name>
<styleUrl>#icon-1899-097138-labelson-nodesc</styleUrl>
<Point>
<coordinates>
19.061239,47.489706
</coordinates>
</Point>
</Placemark>
<Placemark>
<name>Kelenföld vasútállomás (M4)</name>
<styleUrl>#icon-1899-097138-labelson-nodesc</styleUrl>
<Point>
<coordinates>
19.019908905029297,47.464336832952206
</coordinates>
</Point>
</Placemark>
<Placemark>
<name>FlixBus N260 | Budapest – Praha – Berlin ZOB</name>
<styleUrl>#icon-1899-097138-labelson-nodesc</styleUrl>
<Point>
<coordinates>
14.434889,50.083577
</coordinates>
</Point>
</Placemark>
<Placemark>
<name>Prague Masaryk Railway Station (Praha Masarykovo nádraží)</name>
<styleUrl>#icon-1899-097138-labelson-nodesc</styleUrl>
<Point>
<coordinates>
14.43352997303009,50.0877468927813
</coordinates>
</Point>
</Placemark>
<Placemark>
<name>Žižkov Television Tower (Žižkovská televizní věž)</name>
<styleUrl>#icon-1899-097138-labelson-nodesc</styleUrl>
<Point>
<coordinates>
14.450945515737224,50.080971522760386
</coordinates>
</Point>
</Placemark>
<Placemark>
<name>Metro =A= =B= Můstek</name>
<styleUrl>#icon-1899-097138-labelson-nodesc</styleUrl>
<Point>
<coordinates>
14.424119825183576,50.08379557491871
</coordinates>
</Point>
</Placemark>
<Placemark>
<name>Wenceslas Square (Václavské náměstí)</name>
<styleUrl>#icon-1899-097138-labelson-nodesc</styleUrl>
<Point>
<coordinates>
14.427956342697142,50.08103948229041
</coordinates>
</Point>
</Placemark>
<Placemark>
<name>Plavecký stadion Podolí</name>
<styleUrl>#icon-1899-097138-labelson-nodesc</styleUrl>
<Point>
<coordinates>
14.416611986709034,50.05153415022908
</coordinates>
</Point>
</Placemark>
<Placemark>
<name>Metro =C= Chodov</name>
<styleUrl>#icon-1899-097138-labelson-nodesc</styleUrl>
<Point>
<coordinates>
14.491544495444938,50.031010299554275
</coordinates>
</Point>
</Placemark>
<Placemark>
<name>Poliklinika Mazurská (bus)</name>
<styleUrl>#icon-1899-097138-labelson-nodesc</styleUrl>
<Point>
<coordinates>
14.4139020264121,50.12722747180838
</coordinates>
</Point>
</Placemark>
<Placemark>
<name>Kaufland</name>
<styleUrl>#icon-1899-097138-labelson-nodesc</styleUrl>
<Point>
<coordinates>
14.482006,50.127885
</coordinates>
</Point>
</Placemark>
<Placemark>
<name>Metro =C= Střížkov</name>
<styleUrl>#icon-1899-097138-labelson-nodesc</styleUrl>
<Point>
<coordinates>
14.48946475982666,50.12610853576537
</coordinates>
</Point>
</Placemark>
<Placemark>
<name>Metro =C= Háje</name>
<styleUrl>#icon-1899-097138-labelson-nodesc</styleUrl>
<Point>
<coordinates>
14.528724264868279,50.030618384375565
</coordinates>
</Point>
</Placemark>
<Placemark>
<name>Metro =B= Smíchov Station (Metro =B= Smíchovské nádraží)</name>
<styleUrl>#icon-1899-097138-labelson-nodesc</styleUrl>
<Point>
<coordinates>
14.409173154481252,50.06136663923103
</coordinates>
</Point>
</Placemark>
<Placemark>
<name>Metro =B= Anděl</name>
<styleUrl>#icon-1899-097138-labelson-nodesc</styleUrl>
<Point>
<coordinates>
14.404144527045487,50.07137219515762
</coordinates>
</Point>
</Placemark>
<Placemark>
<name>Potrefená husa Na Verandách</name>
<styleUrl>#icon-1899-097138-labelson-nodesc</styleUrl>
<Point>
<coordinates>
14.406652,50.068424
</coordinates>
</Point>
</Placemark>
<Placemark>
<name>Vyšehrad</name>
<styleUrl>#icon-1899-097138-labelson-nodesc</styleUrl>
<Point>
<coordinates>
14.419387329255072,50.06409545401262
</coordinates>
</Point>
</Placemark>
<Placemark>
<name>Mánesův most</name>
<styleUrl>#icon-1899-097138-labelson-nodesc</styleUrl>
<Point>
<coordinates>
14.412831,50.08951
</coordinates>
</Point>
</Placemark>
<Placemark>
<name>Trojský most</name>
<styleUrl>#icon-1899-097138-labelson-nodesc</styleUrl>
<Point>
<coordinates>
14.435949325561525,50.11241884782329
</coordinates>
</Point>
</Placemark>
<Placemark>
<name>plocha v Papírenské</name>
<styleUrl>#icon-1899-097138-labelson-nodesc</styleUrl>
<Point>
<coordinates>
14.399766,50.110963
</coordinates>
</Point>
</Placemark>
<Placemark>
<name>Kaufland</name>
<styleUrl>#icon-1899-097138-labelson-nodesc</styleUrl>
<Point>
<coordinates>
14.392727,50.111427
</coordinates>
</Point>
</Placemark>
<Placemark>
<name>Železniční zastávka Praha-Podbaba</name>
<styleUrl>#icon-1899-097138-labelson-nodesc</styleUrl>
<Point>
<coordinates>
14.395322706225503,50.11246609695865
</coordinates>
</Point>
</Placemark>
<Placemark>
<name>Železniční zastávka Praha-Holešovice zastávka</name>
<styleUrl>#icon-1899-097138-labelson-nodesc</styleUrl>
<Point>
<coordinates>
14.437405985332784,50.106164934870996
</coordinates>
</Point>
</Placemark>
<Placemark>
<name>Metro =C= I. P. Pavlova</name>
<styleUrl>#icon-1899-097138-labelson-nodesc</styleUrl>
<Point>
<coordinates>
14.430366882789004,50.07544773873199
</coordinates>
</Point>
</Placemark>
<Placemark>
<name>Prague Castle View Point (Vyhlídka na Hradčanském náměstí)</name>
<styleUrl>#icon-1899-097138-labelson-nodesc</styleUrl>
<Point>
<coordinates>
14.3986642,50.0892611
</coordinates>
</Point>
</Placemark>
<Placemark>
<name>Pivnice Malostranská beseda</name>
<styleUrl>#icon-1899-097138-labelson-nodesc</styleUrl>
<Point>
<coordinates>
14.405060493785182,50.08853472453904
</coordinates>
</Point>
</Placemark>
<Placemark>
<name>Charles Bridge (Karlův most)</name>
<styleUrl>#icon-1899-097138-labelson-nodesc</styleUrl>
<Point>
<coordinates>
14.41144219015166,50.08647983883716
</coordinates>
</Point>
</Placemark>
<Placemark>
<name>Old Town Square (Staroměstské náměstí)</name>
<styleUrl>#icon-1899-097138-labelson-nodesc</styleUrl>
<Point>
<coordinates>
14.420980775372074,50.08728390792172
</coordinates>
</Point>
</Placemark>
<Placemark>
<name>Metro =B= Náměstí Republiky</name>
<styleUrl>#icon-1899-097138-labelson-nodesc</styleUrl>
<Point>
<coordinates>
14.428916376015165,50.0884259643593
</coordinates>
</Point>
</Placemark>
<Placemark>
<name>Minimino Hotel</name>
<styleUrl>#icon-1899-097138-labelson-nodesc</styleUrl>
<Point>
<coordinates>
14.435907,50.106572
</coordinates>
</Point>
</Placemark>
<Placemark>
<name>Metro =B= =C= Florenc</name>
<styleUrl>#icon-1899-097138-labelson-nodesc</styleUrl>
<Point>
<coordinates>
14.439231897699985,50.091160468574465
</coordinates>
</Point>
</Placemark>
<Placemark>
<name>Istanbul Kebab</name>
<styleUrl>#icon-1899-097138-labelson-nodesc</styleUrl>
<Point>
<coordinates>
14.430394052669087,50.08902714242662
</coordinates>
</Point>
</Placemark>
<Placemark>
<name>Prague Main Railway Station (Praha hlavní nádraží)</name>
<styleUrl>#icon-1899-097138-labelson-nodesc</styleUrl>
<Point>
<coordinates>
14.435445070266722,50.083237812654254
</coordinates>
</Point>
</Placemark>
<Placemark>
<name>Western Railway Station (Nyugati pályaudvar)</name>
<styleUrl>#icon-1899-097138-labelson-nodesc</styleUrl>
<Point>
<coordinates>
19.05755639076233,47.51077317177654
</coordinates>
</Point>
</Placemark>
<Placemark>
<name>Dózsa György út (M3)</name>
<styleUrl>#icon-1899-097138-labelson-nodesc</styleUrl>
<Point>
<coordinates>
19.06353235244751,47.52479749658097
</coordinates>
</Point>
</Placemark>
<Placemark>
<name>Stadion Bus Terminal (Stadion autóbusz-pályaudvar)</name>
<styleUrl>#icon-1899-097138-labelson-nodesc</styleUrl>
<Point>
<coordinates>
19.10756915480439,47.50149994309014
</coordinates>
</Point>
</Placemark>
<Placemark>
<name>McDonald's</name>
<styleUrl>#icon-1899-097138-labelson-nodesc</styleUrl>
<Point>
<coordinates>
20.282249003648758,48.22013867988317
</coordinates>
</Point>
</Placemark>
<Placemark>
<name>TESCO Hipermarket</name>
<styleUrl>#icon-1899-097138-labelson-nodesc</styleUrl>
<Point>
<coordinates>
20.274496730934114,48.22476056193011
</coordinates>
</Point>
</Placemark>
<Placemark>
<name>Bölömbika Kilátótorony</name>
<styleUrl>#icon-1899-097138-labelson-nodesc</styleUrl>
<Point>
<coordinates>
20.643055,47.603683
</coordinates>
</Point>
</Placemark>
<Placemark>
<name>Tisza-tó</name>
<styleUrl>#icon-1899-097138-labelson-nodesc</styleUrl>
<Point>
<coordinates>
20.611845437776644,47.582054558166
</coordinates>
</Point>
</Placemark>
<Placemark>
<name>Ózd vasútállomás</name>
<styleUrl>#icon-1899-097138-labelson-nodesc</styleUrl>
<Point>
<coordinates>
20.292053934873007,48.22236702069367
</coordinates>
</Point>
</Placemark>
<Placemark>
<name>Tiszai pályaudvar</name>
<styleUrl>#icon-1899-097138-labelson-nodesc</styleUrl>
<Point>
<coordinates>
20.80984725905269,48.09889031959852
</coordinates>
</Point>
</Placemark>
<Placemark>
<name>Fontána znamení</name>
<styleUrl>#icon-1899-097138-labelson-nodesc</styleUrl>
<Point>
<coordinates>
21.256958,48.722368
</coordinates>
</Point>
</Placemark>
<Placemark>
<name>Kebab Haus</name>
<styleUrl>#icon-1899-097138-labelson-nodesc</styleUrl>
<Point>
<coordinates>
21.256747711320926,48.72746963967432
</coordinates>
</Point>
</Placemark>
<Placemark>
<name>Košice Railway Station (Železničná stanica Košice)</name>
<styleUrl>#icon-1899-097138-labelson-nodesc</styleUrl>
<Point>
<coordinates>
21.26773951758854,48.72255929306954
</coordinates>
</Point>
</Placemark>
<Placemark>
<name>Prírodné jódové kúpele Číž</name>
<styleUrl>#icon-1899-097138-labelson-nodesc</styleUrl>
<Point>
<coordinates>
20.2812703664322,48.311685252306034
</coordinates>
</Point>
</Placemark>
<Placemark>
<name>Macroklinika</name>
<styleUrl>#icon-1899-097138-labelson-nodesc</styleUrl>
<Point>
<coordinates>
20.788528,48.107078
</coordinates>
</Point>
</Placemark>
<Placemark>
<name>McDonald's</name>
<styleUrl>#icon-1899-097138-labelson-nodesc</styleUrl>
<Point>
<coordinates>
20.789196234070133,48.105725132289585
</coordinates>
</Point>
</Placemark>
<Placemark>
<name>Tiszaújvàros autóbusz-állomás</name>
<styleUrl>#icon-1899-097138-labelson-nodesc</styleUrl>
<Point>
<coordinates>
21.032219658169286,47.93000641523271
</coordinates>
</Point>
</Placemark>
<Placemark>
<name>Hot Wing Factory</name>
<styleUrl>#icon-1899-097138-labelson-nodesc</styleUrl>
<Point>
<coordinates>
19.063332,47.50234
</coordinates>
</Point>
</Placemark>
<Placemark>
<name>Táltos Fogadó</name>
<styleUrl>#icon-1899-097138-labelson-nodesc</styleUrl>
<Point>
<coordinates>
20.387126922607422,48.10326385498047
</coordinates>
</Point>
</Placemark>
<Placemark>
<name>Thermal Hotel Vesta</name>
<styleUrl>#icon-1899-097138-labelson-nodesc</styleUrl>
<Point>
<coordinates>
19.57819,47.45423
</coordinates>
</Point>
</Placemark>
<Placemark>
<name>Praktiker</name>
<styleUrl>#icon-1899-097138-labelson-nodesc</styleUrl>
<Point>
<coordinates>
20.797956497420905,48.058328951996785
</coordinates>
</Point>
</Placemark>
<Placemark>
<name>MOL Òzd</name>
<styleUrl>#icon-1899-097138-labelson-nodesc</styleUrl>
<Point>
<coordinates>
20.269278746173853,48.214043617111365
</coordinates>
</Point>
</Placemark>
<Placemark>
<name>One Identity</name>
<styleUrl>#icon-1899-097138-labelson-nodesc</styleUrl>
<Point>
<coordinates>
19.049519,47.460925
</coordinates>
</Point>
</Placemark>
<Placemark>
<name>T-390B-Residence</name>
<styleUrl>#icon-1899-097138-labelson-nodesc</styleUrl>
<Point>
<coordinates>
20.246865595277225,48.16409428167718
</coordinates>
</Point>
</Placemark>
<Placemark>
<name>Starbucks</name>
<styleUrl>#icon-1899-097138-labelson-nodesc</styleUrl>
<Point>
<coordinates>
19.081522154546214,47.50062119013288
</coordinates>
</Point>
</Placemark>
<Placemark>
<name>Tatabánya vasútállomás</name>
<styleUrl>#icon-1899-097138-labelson-nodesc</styleUrl>
<Point>
<coordinates>
18.39315176010132,47.58529710183436
</coordinates>
</Point>
</Placemark>
<Placemark>
<name>TESCO Hipermarket</name>
<styleUrl>#icon-1899-097138-labelson-nodesc</styleUrl>
<Point>
<coordinates>
18.320937345146202,47.495761361494715
</coordinates>
</Point>
</Placemark>
<Placemark>
<name>Oroszlány</name>
<styleUrl>#icon-1899-097138-labelson-nodesc</styleUrl>
<Point>
<coordinates>
18.318787006593364,47.48951107195358
</coordinates>
</Point>
</Placemark>
<Placemark>
<name>Burger King</name>
<styleUrl>#icon-1899-097138-labelson-nodesc</styleUrl>
<Point>
<coordinates>
19.03200752326987,47.464003179476315
</coordinates>
</Point>
</Placemark>
<Placemark>
<name>Kelenföld Vasútállomás M (1)</name>
<styleUrl>#icon-1899-097138-labelson-nodesc</styleUrl>
<Point>
<coordinates>
19.023186,47.464043
</coordinates>
</Point>
</Placemark>
<Placemark>
<name>Fonyódliget strand</name>
<styleUrl>#icon-1899-097138-labelson-nodesc</styleUrl>
<Point>
<coordinates>
17.589427659147145,46.75830789681064
</coordinates>
</Point>
</Placemark>
<Placemark>
<name>Rozé Bisztró</name>
<styleUrl>#icon-1899-097138-labelson-nodesc</styleUrl>
<Point>
<coordinates>
17.531677,46.734425
</coordinates>
</Point>
</Placemark>
<Placemark>
<name>Fonyód vasútállomás</name>
<styleUrl>#icon-1899-097138-labelson-nodesc</styleUrl>
<Point>
<coordinates>
17.55812037837226,46.74990513777367
</coordinates>
</Point>
</Placemark>
<Placemark>
<name>Southern Railway Station (Déli pályaudvar)</name>
<styleUrl>#icon-1899-097138-labelson-nodesc</styleUrl>
<Point>
<coordinates>
19.024876356124878,47.499764114259754
</coordinates>
</Point>
</Placemark>
<Placemark>
<name>Margaret Bridge (Margit híd)</name>
<styleUrl>#icon-1899-097138-labelson-nodesc</styleUrl>
<Point>
<coordinates>
19.043458700180054,47.514671810274365
</coordinates>
</Point>
</Placemark>
<Placemark>
<name>Szeráj török étterem</name>
<styleUrl>#icon-1899-097138-labelson-nodesc</styleUrl>
<Point>
<coordinates>
19.05059350736522,47.51198450967566
</coordinates>
</Point>
</Placemark>
<Placemark>
<name>Blaha Lujza tér M (4, 6)</name>
<styleUrl>#icon-1899-097138-labelson-nodesc</styleUrl>
<Point>
<coordinates>
19.070411510985824,47.49681104021115
</coordinates>
</Point>
</Placemark>
<Placemark>
<name>temetői buszmegálló</name>
<styleUrl>#icon-1899-097138-labelson-nodesc</styleUrl>
<Point>
<coordinates>
20.24466930830104,48.15433464463082
</coordinates>
</Point>
</Placemark>
<Placemark>
<name>Bogica Cukrászda</name>
<styleUrl>#icon-1899-097138-labelson-nodesc</styleUrl>
<Point>
<coordinates>
20.173958533052595,47.9937314358018
</coordinates>
</Point>
</Placemark>
<Placemark>
<name>Bükkszékfürdő</name>
<styleUrl>#icon-1899-097138-labelson-nodesc</styleUrl>
<Point>
<coordinates>
20.174630672175923,47.99338352321973
</coordinates>
</Point>
</Placemark>
<Placemark>
<name>Eger autóbusz-állomás</name>
<styleUrl>#icon-1899-097138-labelson-nodesc</styleUrl>
<Point>
<coordinates>
20.37097369667556,47.90070550235787
</coordinates>
</Point>
</Placemark>
<Placemark>
<name>Tisza-tavi Ökocentrum</name>
<styleUrl>#icon-1899-097138-labelson-nodesc</styleUrl>
<Point>
<coordinates>
20.661306658055867,47.646155265083735
</coordinates>
</Point>
</Placemark>
<Placemark>
<name>Dinnyéshát</name>
<styleUrl>#icon-1899-097138-labelson-nodesc</styleUrl>
<Point>
<coordinates>
20.57474219793655,47.51677607655622
</coordinates>
</Point>
</Placemark>
<Placemark>
<name>Med-Prevent</name>
<styleUrl>#icon-1899-097138-labelson-nodesc</styleUrl>
<Point>
<coordinates>
20.72943395487676,48.09421263610787
</coordinates>
</Point>
</Placemark>
<Placemark>
<name>Auchan</name>
<styleUrl>#icon-1899-097138-labelson-nodesc</styleUrl>
<Point>
<coordinates>
19.116640090942383,47.6068574675004
</coordinates>
</Point>
</Placemark>
<Placemark>
<name>McDonald's</name>
<styleUrl>#icon-1899-097138-labelson-nodesc</styleUrl>
<Point>
<coordinates>
19.11188467665393,47.60624225190591
</coordinates>
</Point>
</Placemark>
<Placemark>
<name>Bauhaus</name>
<styleUrl>#icon-1899-097138-labelson-nodesc</styleUrl>
<Point>
<coordinates>
19.113828605981517,47.60953916751285
</coordinates>
</Point>
</Placemark>
<Placemark>
<name>Járdánháza Posta</name>
<styleUrl>#icon-1899-097138-labelson-nodesc</styleUrl>
<Point>
<coordinates>
20.24709463119507,48.15599467723479
</coordinates>
</Point>
</Placemark>
<Placemark>
<name>Shell</name>
<styleUrl>#icon-1899-097138-labelson-nodesc</styleUrl>
<Point>
<coordinates>
20.287563737443246,48.21955508893246
</coordinates>
</Point>
</Placemark>
<Placemark>
<name>Almási Balogh Pál Kórház</name>
<styleUrl>#icon-1899-097138-labelson-nodesc</styleUrl>
<Point>
<coordinates>
20.291370473507047,48.20957511216843
</coordinates>
</Point>
</Placemark>
<Placemark>
<name>Kormányablak</name>
<styleUrl>#icon-1899-097138-labelson-nodesc</styleUrl>
<Point>
<coordinates>
20.28699,48.218845
</coordinates>
</Point>
</Placemark>
<Placemark>
<name>KFC Eger DT</name>
<styleUrl>#icon-1899-097138-labelson-nodesc</styleUrl>
<Point>
<coordinates>
20.3683094,47.9268164
</coordinates>
</Point>
</Placemark>
<Placemark>
<name>Agria Mozi</name>
<styleUrl>#icon-1899-097138-labelson-nodesc</styleUrl>
<Point>
<coordinates>
20.367529981752615,47.90054306567312
</coordinates>
</Point>
</Placemark>
<Placemark>
<name>Ózd Újvárostér</name>
<styleUrl>#icon-1899-097138-labelson-nodesc</styleUrl>
<Point>
<coordinates>
20.257247275275173,48.225170282619494
</coordinates>
</Point>
</Placemark>
<Placemark>
<name>Dömösi hajóállomás</name>
<styleUrl>#icon-1899-097138-labelson-nodesc</styleUrl>
<Point>
<coordinates>
18.918153071870382,47.7653457778157
</coordinates>
</Point>
</Placemark>
<Placemark>
<name>Prédikálószék</name>
<styleUrl>#icon-1899-097138-labelson-nodesc</styleUrl>
<Point>
<coordinates>
18.92064577859692,47.73952681706939
</coordinates>
</Point>
</Placemark>
<Placemark>
<name>Dobogókő Kilátó</name>
<styleUrl>#icon-1899-097138-labelson-nodesc</styleUrl>
<Point>
<coordinates>
18.898976759488388,47.72004522938313
</coordinates>
</Point>
</Placemark>
<Placemark>
<name>Dobogókő - Eötvös Loránd Menedékház</name>
<styleUrl>#icon-1899-097138-labelson-nodesc</styleUrl>
<Point>
<coordinates>
18.898790652710982,47.71954979909533
</coordinates>
</Point>
</Placemark>
<Placemark>
<name>Coop Arló</name>
<styleUrl>#icon-1899-097138-labelson-nodesc</styleUrl>
<Point>
<coordinates>
20.268863635290142,48.14912286793596
</coordinates>
</Point>
</Placemark>
<Placemark>
<name>Starbucks</name>
<styleUrl>#icon-1899-097138-labelson-nodesc</styleUrl>
<Point>
<coordinates>
19.058358,47.499315
</coordinates>
</Point>
</Placemark>
<Placemark>
<name>Star Kebab</name>
<styleUrl>#icon-1899-097138-labelson-nodesc</styleUrl>
<Point>
<coordinates>
19.058549372790104,47.49614514804221
</coordinates>
</Point>
</Placemark>
<Placemark>
<name>Hetedik Lépcső</name>
<styleUrl>#icon-1899-097138-labelson-nodesc</styleUrl>
<Point>
<coordinates>
19.063302,47.494943
</coordinates>
</Point>
</Placemark>
<Placemark>
<name>Neverland Bar and Escape Room</name>
<styleUrl>#icon-1899-097138-labelson-nodesc</styleUrl>
<Point>
<coordinates>
19.063161,47.49561
</coordinates>
</Point>
</Placemark>
<Placemark>
<name>Astoria</name>
<styleUrl>#icon-1899-097138-labelson-nodesc</styleUrl>
<Point>
<coordinates>
19.060097205975598,47.49432382237377
</coordinates>
</Point>
</Placemark>
<Placemark>
<name>OBI</name>
<styleUrl>#icon-1899-097138-labelson-nodesc</styleUrl>
<Point>
<coordinates>
20.78084,48.1285156
</coordinates>
</Point>
</Placemark>
<Placemark>
<name>Buszpályaudvar</name>
<styleUrl>#icon-1899-097138-labelson-nodesc</styleUrl>
<Point>
<coordinates>
20.791325569152832,48.105367906362574
</coordinates>
</Point>
</Placemark>
<Placemark>
<name>Sörpatika</name>
<styleUrl>#icon-1899-097138-labelson-nodesc</styleUrl>
<Point>
<coordinates>
21.03546182122308,47.933460156818
</coordinates>
</Point>
</Placemark>
<Placemark>
<name>City Pub</name>
<styleUrl>#icon-1899-097138-labelson-nodesc</styleUrl>
<Point>
<coordinates>
21.038519864786767,47.93297413470933
</coordinates>
</Point>
</Placemark>
<Placemark>
<name>Bitang Joe</name>
<styleUrl>#icon-1899-097138-labelson-nodesc</styleUrl>
<Point>
<coordinates>
20.784717868865062,48.10194607326305
</coordinates>
</Point>
</Placemark>
<Placemark>
<name>Miskolc-tapolcai Bobpálya</name>
<styleUrl>#icon-1899-097138-labelson-nodesc</styleUrl>
<Point>
<coordinates>
20.74608355697181,48.0594199333623
</coordinates>
</Point>
</Placemark>
<Placemark>
<name>Barlangfürdő</name>
<styleUrl>#icon-1899-097138-labelson-nodesc</styleUrl>
<Point>
<coordinates>
20.745375804402286,48.06061762260752
</coordinates>
</Point>
</Placemark>
<Placemark>
<name>Auchan</name>
<styleUrl>#icon-1899-097138-labelson-nodesc</styleUrl>
<Point>
<coordinates>
20.83692358263885,48.10932258144009
</coordinates>
</Point>
</Placemark>
<Placemark>
<name>Decathlon Miskolc</name>
<styleUrl>#icon-1899-097138-labelson-nodesc</styleUrl>
<Point>
<coordinates>
20.83472638922003,48.10642103181951
</coordinates>
</Point>
</Placemark>
<Placemark>
<name>Csülök Bisztró</name>
<styleUrl>#icon-1899-097138-labelson-nodesc</styleUrl>
<Point>
<coordinates>
20.835733,48.106846
</coordinates>
</Point>
</Placemark>
<Placemark>
<name>OTP Bank</name>
<styleUrl>#icon-1899-097138-labelson-nodesc</styleUrl>
<Point>
<coordinates>
20.281739,48.21939
</coordinates>
</Point>
</Placemark>
<Placemark>
<name>TESCO Hipermarket</name>
<styleUrl>#icon-1899-097138-labelson-nodesc</styleUrl>
<Point>
<coordinates>
19.89579544772025,47.48993547550699
</coordinates>
</Point>
</Placemark>
<Placemark>
<name>Jászberény</name>
<styleUrl>#icon-1899-097138-labelson-nodesc</styleUrl>
<Point>
<coordinates>
19.90751330982407,47.499904847887
</coordinates>
</Point>
</Placemark>
<Placemark>
<name>Shell</name>
<styleUrl>#icon-1899-097138-labelson-nodesc</styleUrl>
<Point>
<coordinates>
20.63089,48.25218
</coordinates>
</Point>
</Placemark>
<Placemark>
<name>Rózsakerti Falatozó</name>
<styleUrl>#icon-1899-097138-labelson-nodesc</styleUrl>
<Point>
<coordinates>
19.040486,47.435607
</coordinates>
</Point>
</Placemark>
<Placemark>
<name>OBI</name>
<styleUrl>#icon-1899-097138-labelson-nodesc</styleUrl>
<Point>
<coordinates>
19.041864220083653,47.43681371168941
</coordinates>
</Point>
</Placemark>
<Placemark>
<name>Érd-felső megállóhely</name>
<styleUrl>#icon-1899-097138-labelson-nodesc</styleUrl>
<Point>
<coordinates>
18.922710975061893,47.38130005066884
</coordinates>
</Point>
</Placemark>
<Placemark>
<name>Kelenföld Railway Station (Kelenföld vasútállomás)</name>
<styleUrl>#icon-1899-097138-labelson-nodesc</styleUrl>
<Point>
<coordinates>
19.020929975253086,47.46428697748805
</coordinates>
</Point>
</Placemark>
<Placemark>
<name>Dt@Barcika</name>
<styleUrl>#icon-1899-097138-labelson-nodesc</styleUrl>
<Point>
<coordinates>
20.62133273667507,48.250292589962335
</coordinates>
</Point>
</Placemark>
<Placemark>
<name>Nemzeti Dohánybolt</name>
<styleUrl>#icon-1899-097138-labelson-nodesc</styleUrl>
<Point>
<coordinates>
20.62312801921937,48.247715199744015
</coordinates>
</Point>
</Placemark>
<Placemark>
<name>Arló</name>
<styleUrl>#icon-1899-097138-labelson-nodesc</styleUrl>
<Point>
<coordinates>
20.254520024500845,48.17180243686496
</coordinates>
</Point>
</Placemark>
<Placemark>
<name>Mevlana Kebab</name>
<styleUrl>#icon-1899-097138-labelson-nodesc</styleUrl>
<Point>
<coordinates>
19.11003325269872,47.50045564028513
</coordinates>
</Point>
</Placemark>
<Placemark>
<name>Belvárosi COOP (Kutyaól)</name>
<styleUrl>#icon-1899-097138-labelson-nodesc</styleUrl>
<Point>
<coordinates>
20.621843077517845,48.25145934687632
</coordinates>
</Point>
</Placemark>
<Placemark>
<name>Doktor24 Citizen</name>
<styleUrl>#icon-1899-097138-labelson-nodesc</styleUrl>
<Point>
<coordinates>
19.06399525257943,47.52595585330774
</coordinates>
</Point>
</Placemark>
<Placemark>
<name>OTP Bank</name>
<styleUrl>#icon-1899-097138-labelson-nodesc</styleUrl>
<Point>
<coordinates>
19.118911683582922,47.50350989651098
</coordinates>
</Point>
</Placemark>
<Placemark>
<name>Burger King</name>
<styleUrl>#icon-1899-097138-labelson-nodesc</styleUrl>
<Point>
<coordinates>
19.113029837608337,47.501047052843504
</coordinates>
</Point>
</Placemark>
<Placemark>
<name>Posta</name>
<styleUrl>#icon-1899-097138-labelson-nodesc</styleUrl>
<Point>
<coordinates>
20.622540195525822,48.25278191997101
</coordinates>
</Point>
</Placemark>
<Placemark>
<name>Eastern Railway Station (Keleti pályaudvar)</name>
<styleUrl>#icon-1899-097138-labelson-nodesc</styleUrl>
<Point>
<coordinates>
19.083557522617753,47.50042943860571
</coordinates>
</Point>
</Placemark>
<Placemark>
<name>Xantus János Állatkert</name>
<styleUrl>#icon-1899-097138-labelson-nodesc</styleUrl>
<Point>
<coordinates>
17.669139931429914,47.69527795054961
</coordinates>
</Point>
</Placemark>
<Placemark>
<name>Győr vasútállomás</name>
<styleUrl>#icon-1899-097138-labelson-nodesc</styleUrl>
<Point>
<coordinates>
17.63430118560791,47.682147670241804
</coordinates>
</Point>
</Placemark>
<Placemark>
<name>Majk</name>
<styleUrl>#icon-1899-097138-labelson-nodesc</styleUrl>
<Point>
<coordinates>
18.33179798735067,47.51364668320598
</coordinates>
</Point>
</Placemark>
<Placemark>
<name>Burger King</name>
<styleUrl>#icon-1899-097138-labelson-nodesc</styleUrl>
<Point>
<coordinates>
19.101315268261242,47.508573342805015
</coordinates>
</Point>
</Placemark>
<Placemark>
<name>Kazincbarcika vasútállomás</name>
<styleUrl>#icon-1899-097138-labelson-nodesc</styleUrl>
<Point>
<coordinates>
20.62814009912997,48.26391385776848
</coordinates>
</Point>
</Placemark>
<Placemark>
<name>Eger vasútállomás</name>
<styleUrl>#icon-1899-097138-labelson-nodesc</styleUrl>
<Point>
<coordinates>
20.381693243980408,47.891582387079836
</coordinates>
</Point>
</Placemark>
<Placemark>
<name>Corvin-negyed M (4, 6)</name>
<styleUrl>#icon-1899-097138-labelson-nodesc</styleUrl>
<Point>
<coordinates>
19.069771284409754,47.48532298456859
</coordinates>
</Point>
</Placemark>
<Placemark>
<name>Legenda Sörfőzde Center</name>
<styleUrl>#icon-1899-097138-labelson-nodesc</styleUrl>
<Point>
<coordinates>
19.17208737326543,47.50481175603674
</coordinates>
</Point>
</Placemark>
<Placemark>
<name>Örs vezér tere (M2)</name>
<styleUrl>#icon-1899-097138-labelson-nodesc</styleUrl>
<Point>
<coordinates>
19.13554212933861,47.50296581478095
</coordinates>
</Point>
</Placemark>
<Placemark>
<name>Utas Club Büfé</name>
<styleUrl>#icon-1899-097138-labelson-nodesc</styleUrl>
<Point>
<coordinates>
20.80984354019165,48.098690328442416
</coordinates>
</Point>
</Placemark>
<Placemark>
<name>SPAR</name>
<styleUrl>#icon-1899-097138-labelson-nodesc</styleUrl>
<Point>
<coordinates>
20.6297359,48.25217
</coordinates>
</Point>
</Placemark>
<Placemark>
<name>Orvosi Rendelő Járdánháza</name>
<styleUrl>#icon-1899-097138-labelson-nodesc</styleUrl>
<Point>
<coordinates>
20.24449,48.15389
</coordinates>
</Point>
</Placemark>
<Placemark>
<name>Coop Újvárostér</name>
<styleUrl>#icon-1899-097138-labelson-nodesc</styleUrl>
<Point>
<coordinates>
20.257893,48.22552
</coordinates>
</Point>
</Placemark>
<Placemark>
<name>Népkert</name>
<styleUrl>#icon-1899-097138-labelson-nodesc</styleUrl>
<Point>
<coordinates>
20.78659162404814,48.09548342930862
</coordinates>
</Point>
</Placemark>
<Placemark>
<name>Klikk Internet és Lan Klub</name>
<styleUrl>#icon-1899-097138-labelson-nodesc</styleUrl>
<Point>
<coordinates>
20.62161514813846,48.25179393915773
</coordinates>
</Point>
</Placemark>
<Placemark>
<name>Autóbusz állomás</name>
<styleUrl>#icon-1899-097138-labelson-nodesc</styleUrl>
<Point>
<coordinates>
20.289935171640586,48.218752314921964
</coordinates>
</Point>
</Placemark>
<Placemark>
<name>Ózd bolyok</name>
<styleUrl>#icon-1899-097138-labelson-nodesc</styleUrl>
<Point>
<coordinates>
20.26131256392033,48.22875166889284
</coordinates>
</Point>
</Placemark>
<Placemark>
<name>OMV Ózd</name>
<styleUrl>#icon-1899-097138-labelson-nodesc</styleUrl>
<Point>
<coordinates>
20.273591741641678,48.22213892123087
</coordinates>
</Point>
</Placemark>
<Placemark>
<name>SunCity Pizzéria</name>
<styleUrl>#icon-1899-097138-labelson-nodesc</styleUrl>
<Point>
<coordinates>
20.263492305721883,48.223562120166925
</coordinates>
</Point>
</Placemark>
<Placemark>
<name>Rossmann</name>
<styleUrl>#icon-1899-097138-labelson-nodesc</styleUrl>
<Point>
<coordinates>
20.622525218942727,48.25279628544663
</coordinates>
</Point>
</Placemark>
<Placemark>
<name>Buffaló Sör és Ételbár</name>
<styleUrl>#icon-1899-097138-labelson-nodesc</styleUrl>
<Point>
<coordinates>
20.61905132433554,48.245352369434826
</coordinates>
</Point>
</Placemark>
<Placemark>
<name>Likaj pékség</name>
<styleUrl>#icon-1899-097138-labelson-nodesc</styleUrl>
<Point>
<coordinates>
20.278224,48.220152
</coordinates>
</Point>
</Placemark>
<Placemark>
<name>Kazincbarcika alsó (MÁV)</name>
<styleUrl>#icon-1899-097138-labelson-nodesc</styleUrl>
<Point>
<coordinates>
20.650882207693417,48.24546742289896
</coordinates>
</Point>
</Placemark>
<Placemark>
<name>Kőbánya-Kispest (M3)</name>
<styleUrl>#icon-1899-097138-labelson-nodesc</styleUrl>
<Point>
<coordinates>
19.148284792900085,47.4635969994332
</coordinates>
</Point>
</Placemark>
<Placemark>
<name>Székely Kantin</name>
<styleUrl>#icon-1899-097138-labelson-nodesc</styleUrl>
<Point>
<coordinates>
19.147306,47.462555
</coordinates>
</Point>
</Placemark>
<Placemark>
<name>Budapest Liszt Ferenc International Airport (BUD) (Budapest Liszt Ferenc nemzetközi repülőtér)</name>
<styleUrl>#icon-1899-097138-labelson-nodesc</styleUrl>
<Point>
<coordinates>
19.260798463708202,47.43090022934757
</coordinates>
</Point>
</Placemark>
<Placemark>
<name>Helsinki Airport (HEL) (Helsinki-Vantaan lentoasema)</name>
<styleUrl>#icon-1899-097138-labelson-nodesc</styleUrl>
<Point>
<coordinates>
24.968297481536865,60.31912855684579
</coordinates>
</Point>
</Placemark>
<Placemark>
<name>Alepa</name>
<styleUrl>#icon-1899-097138-labelson-nodesc</styleUrl>
<Point>
<coordinates>
24.96741405353762,60.318269544940286
</coordinates>
</Point>
</Placemark>
<Placemark>
<name>Taco Bell</name>
<styleUrl>#icon-1899-097138-labelson-nodesc</styleUrl>
<Point>
<coordinates>
25.04326423391818,60.29182804931072
</coordinates>
</Point>
</Placemark>
<Placemark>
<name>Burger King</name>
<styleUrl>#icon-1899-097138-labelson-nodesc</styleUrl>
<Point>
<coordinates>
25.04380106604844,60.29259673673414
</coordinates>
</Point>
</Placemark>
<Placemark>
<name>VR Tikkurila</name>
<styleUrl>#icon-1899-097138-labelson-nodesc</styleUrl>
<Point>
<coordinates>
25.044270593446882,60.29278517607911
</coordinates>
</Point>
</Placemark>
<Placemark>
<name>VR Kouvola</name>
<styleUrl>#icon-1899-097138-labelson-nodesc</styleUrl>
<Point>
<coordinates>
26.705317497253418,60.86607220083709
</coordinates>
</Point>
</Placemark>
<Placemark>
<name>Kouvolan ravirata</name>
<styleUrl>#icon-1899-097138-labelson-nodesc</styleUrl>
<Point>
<coordinates>
26.703955958573186,60.88563143629336
</coordinates>
</Point>
</Placemark>
<Placemark>
<name>Urheilupuisto</name>
<styleUrl>#icon-1899-097138-labelson-nodesc</styleUrl>
<Point>
<coordinates>
26.70229607998494,60.87347484356523
</coordinates>
</Point>
</Placemark>
<Placemark>
<name>K-Supermarket</name>
<styleUrl>#icon-1899-097138-labelson-nodesc</styleUrl>
<Point>
<coordinates>
26.70751012915326,60.86762574637447
</coordinates>
</Point>
</Placemark>
<Placemark>
<name>Amarillo</name>
<styleUrl>#icon-1899-097138-labelson-nodesc</styleUrl>
<Point>
<coordinates>
26.704305404593217,60.869834533374146
</coordinates>
</Point>
</Placemark>
<Placemark>
<name>Gastropub Betony</name>
<styleUrl>#icon-1899-097138-labelson-nodesc</styleUrl>
<Point>
<coordinates>
26.706195840020964,60.868244036628106
</coordinates>
</Point>
</Placemark>
<Placemark>
<name>Alko</name>
<styleUrl>#icon-1899-097138-labelson-nodesc</styleUrl>
<Point>
<coordinates>
26.70735066397276,60.867564894694546
</coordinates>
</Point>
</Placemark>
<Placemark>
<name>Hotelli Turistihovi</name>
<styleUrl>#icon-1899-097138-labelson-nodesc</styleUrl>
<Point>
<coordinates>
26.711612237740113,60.86778219111052
</coordinates>
</Point>
</Placemark>
<Placemark>
<name>Keilaamo</name>
<styleUrl>#icon-1899-097138-labelson-nodesc</styleUrl>
<Point>
<coordinates>
23.50594240864967,61.47442098181044
</coordinates>
</Point>
</Placemark>
<Placemark>
<name>Emäkosken silta</name>
<styleUrl>#icon-1899-097138-labelson-nodesc</styleUrl>
<Point>
<coordinates>
23.513239670520548,61.47285059812666
</coordinates>
</Point>
</Placemark>
<Placemark>
<name>VR Nokia</name>
<styleUrl>#icon-1899-097138-labelson-nodesc</styleUrl>
<Point>
<coordinates>
23.499565637050765,61.48106660285827
</coordinates>
</Point>
</Placemark>
<Placemark>
<name>VR Tampere</name>
<styleUrl>#icon-1899-097138-labelson-nodesc</styleUrl>
<Point>
<coordinates>
23.773390059885944,61.49845759319227
</coordinates>
</Point>
</Placemark>
<Placemark>
<name>Helsinki Central Railway Station (VR Helsingin päärautatieasema)</name>
<styleUrl>#icon-1899-097138-labelson-nodesc</styleUrl>
<Point>
<coordinates>
24.941453933715817,60.171307221851606
</coordinates>
</Point>
</Placemark>
<Placemark>
<name>Forenom Aparthotel</name>
<styleUrl>#icon-1899-097138-labelson-nodesc</styleUrl>
<Point>
<coordinates>
24.932400764936983,60.16599897188643
</coordinates>
</Point>
</Placemark>
<Placemark>
<name>Eteläsatama / South Harbor</name>
<styleUrl>#icon-1899-097138-labelson-nodesc</styleUrl>
<Point>
<coordinates>
24.957671548715723,60.161648062277486
</coordinates>
</Point>
</Placemark>
<Placemark>
<name>Laakso / Dal</name>
<styleUrl>#icon-1899-097138-labelson-nodesc</styleUrl>
<Point>
<coordinates>
24.91643058640751,60.19198696269094
</coordinates>
</Point>
</Placemark>
<Placemark>
<name>Töölönlahti / Tölöviken (Töölönlahti)</name>
<styleUrl>#icon-1899-097138-labelson-nodesc</styleUrl>
<Point>
<coordinates>
24.934245965279626,60.181081314325844
</coordinates>
</Point>
</Placemark>
<Placemark>
<name>R-kioski</name>
<styleUrl>#icon-1899-097138-labelson-nodesc</styleUrl>
<Point>
<coordinates>
24.80532962649771,60.17596508857803
</coordinates>
</Point>
</Placemark>
<Placemark>
<name>Metro Mellunmäki</name>
<styleUrl>#icon-1899-097138-labelson-nodesc</styleUrl>
<Point>
<coordinates>
25.111055329251542,60.23919155166935
</coordinates>
</Point>
</Placemark>
<Placemark>
<name>Stockmann</name>
<styleUrl>#icon-1899-097138-labelson-nodesc</styleUrl>
<Point>
<coordinates>
24.942081452458524,60.168339297504296
</coordinates>
</Point>
</Placemark>
<Placemark>
<name>Starbucks</name>
<styleUrl>#icon-1899-097138-labelson-nodesc</styleUrl>
<Point>
<coordinates>
24.933259332563342,60.16946631499278
</coordinates>
</Point>
</Placemark>
<Placemark>
<name>Eiranpuisto</name>
<styleUrl>#icon-1899-097138-labelson-nodesc</styleUrl>
<Point>
<coordinates>
24.940803250989443,60.157703326482206
</coordinates>
</Point>
</Placemark>
<Placemark>
<name>Eiranranta</name>
<styleUrl>#icon-1899-097138-labelson-nodesc</styleUrl>
<Point>
<coordinates>
24.934650861041693,60.154691750178
</coordinates>
</Point>
</Placemark>
<Placemark>
<name>K-Market Freda</name>
<styleUrl>#icon-1899-097138-labelson-nodesc</styleUrl>
<Point>
<coordinates>
24.933215547016736,60.16662777620541
</coordinates>
</Point>
</Placemark>
<Placemark>
<name>Eerikin Pippuri</name>
<styleUrl>#icon-1899-097138-labelson-nodesc</styleUrl>
<Point>
<coordinates>
24.93311068534721,60.166621194492755
</coordinates>
</Point>
</Placemark>
<Placemark>
<name>McDonald's</name>
<styleUrl>#icon-1899-097138-labelson-nodesc</styleUrl>
<Point>
<coordinates>
24.93015505583873,60.16895632666647
</coordinates>
</Point>
</Placemark>
<Placemark>
<name>Terminal 2</name>
<styleUrl>#icon-1899-097138-labelson-nodesc</styleUrl>
<Point>
<coordinates>
11.791114904224473,48.353944938141815
</coordinates>
</Point>
</Placemark>
<Placemark>
<name>McDonald's</name>
<styleUrl>#icon-1899-097138-labelson-nodesc</styleUrl>
<Point>
<coordinates>
11.578102290368406,48.136082614390254
</coordinates>
</Point>
</Placemark>
<Placemark>
<name>Tabak Store 2</name>
<styleUrl>#icon-1899-097138-labelson-nodesc</styleUrl>
<Point>
<coordinates>
11.582897,48.13349
</coordinates>
</Point>
</Placemark>
<Placemark>
<name>Marienplatz</name>
<styleUrl>#icon-1899-097138-labelson-nodesc</styleUrl>
<Point>
<coordinates>
11.57544648835225,48.13739230502191
</coordinates>
</Point>
</Placemark>
<Placemark>
<name>S+U Marienplatz</name>
<styleUrl>#icon-1899-097138-labelson-nodesc</styleUrl>
<Point>
<coordinates>
11.575961635303429,48.13709901295315
</coordinates>
</Point>
</Placemark>
<Placemark>
<name>S Flughafen München</name>
<styleUrl>#icon-1899-097138-labelson-nodesc</styleUrl>
<Point>
<coordinates>
11.786141395568848,48.353775109400154
</coordinates>
</Point>
</Placemark>
<Placemark>
<name>Munich Airport Franz Josef Strauss (MUC) (Flughafen München Franz Josef Strauß)</name>
<styleUrl>#icon-1899-097138-labelson-nodesc</styleUrl>
<Point>
<coordinates>
11.790647506713867,48.35466630484906
</coordinates>
</Point>
</Placemark>
<Placemark>
<name>Soma</name>
<styleUrl>#icon-1899-097138-labelson-nodesc</styleUrl>
<Point>
<coordinates>
-6.246042563535936,53.42634555442475
</coordinates>
</Point>
</Placemark>
<Placemark>
<name>Dublin Airport (DUB)</name>
<styleUrl>#icon-1899-097138-labelson-nodesc</styleUrl>
<Point>
<coordinates>
-6.243583275354467,53.42676630191229
</coordinates>
</Point>
</Placemark>
<Placemark>
<name>Academy Plaza Hotel</name>
<styleUrl>#icon-1899-097138-labelson-nodesc</styleUrl>
<Point>
<coordinates>
-6.260062199331547,53.35247949674978
</coordinates>
</Point>
</Placemark>
<Placemark>
<name>Next Door</name>
<styleUrl>#icon-1899-097138-labelson-nodesc</styleUrl>
<Point>
<coordinates>
-6.279352516054579,53.3315896241482
</coordinates>
</Point>
</Placemark>
<Placemark>
<name>Abbey Street Luas</name>
<styleUrl>#icon-1899-097138-labelson-nodesc</styleUrl>
<Point>
<coordinates>
-6.258362552943443,53.348740761234936
</coordinates>
</Point>
</Placemark>
<Placemark>
<name>O'Connell Bridge</name>
<styleUrl>#icon-1899-097138-labelson-nodesc</styleUrl>
<Point>
<coordinates>
-6.259218493817961,53.34729813510136
</coordinates>
</Point>
</Placemark>
<Placemark>
<name>Jim Larkin Statue</name>
<styleUrl>#icon-1899-097138-labelson-nodesc</styleUrl>
<Point>
<coordinates>
-6.259638083147434,53.349068019927806
</coordinates>
</Point>
</Placemark>
<Placemark>
<name>The Spire of Dublin</name>
<styleUrl>#icon-1899-097138-labelson-nodesc</styleUrl>
<Point>
<coordinates>
-6.260255,53.349817
</coordinates>
</Point>
</Placemark>
<Placemark>
<name>Starbucks</name>
<styleUrl>#icon-1899-097138-labelson-nodesc</styleUrl>
<Point>
<coordinates>
-6.258780636619465,53.349963404388596
</coordinates>
</Point>
</Placemark>
<Placemark>
<name>Rocdoc Covid Test</name>
<styleUrl>#icon-1899-097138-labelson-nodesc</styleUrl>
<Point>
<coordinates>
-6.22627861292413,53.4251491250247
</coordinates>
</Point>
</Placemark>
<Placemark>
<name>Glendalough Upper Lake</name>
<styleUrl>#icon-1899-097138-labelson-nodesc</styleUrl>
<Point>
<coordinates>
-6.355014338015062,53.00542562378754
</coordinates>
</Point>
</Placemark>
<Placemark>
<name>Five Guys</name>
<styleUrl>#icon-1899-097138-labelson-nodesc</styleUrl>
<Point>
<coordinates>
-6.243961494580976,53.2882865972978
</coordinates>
</Point>
</Placemark>
<Placemark>
<name>Dundrum Luas</name>
<styleUrl>#icon-1899-097138-labelson-nodesc</styleUrl>
<Point>
<coordinates>
-6.244553589997513,53.294861756151064
</coordinates>
</Point>
</Placemark>
<Placemark>
<name>Parnell Luas</name>
<styleUrl>#icon-1899-097138-labelson-nodesc</styleUrl>
<Point>
<coordinates>
-6.260478849165264,53.353154897693315
</coordinates>
</Point>
</Placemark>
<Placemark>
<name>Starbucks</name>
<styleUrl>#icon-1899-097138-labelson-nodesc</styleUrl>
<Point>
<coordinates>
-6.257446900419469,53.339295816146894
</coordinates>
</Point>
</Placemark>
<Placemark>
<name>James' Luas</name>
<styleUrl>#icon-1899-097138-labelson-nodesc</styleUrl>
<Point>
<coordinates>
-6.293022304277763,53.34211646047255
</coordinates>
</Point>
</Placemark>
<Placemark>
<name>Lundy Foots</name>
<styleUrl>#icon-1899-097138-labelson-nodesc</styleUrl>
<Point>
<coordinates>
-6.267982460429496,53.34495019501509
</coordinates>
</Point>
</Placemark>
<Placemark>
<name>Urban Brewing</name>
<styleUrl>#icon-1899-097138-labelson-nodesc</styleUrl>
<Point>
<coordinates>
-6.248247590693183,53.349070187494966
</coordinates>
</Point>
</Placemark>
<Placemark>
<name>Samuel Beckett Bridge</name>
<styleUrl>#icon-1899-097138-labelson-nodesc</styleUrl>
<Point>
<coordinates>
-6.241255,53.347027
</coordinates>
</Point>
</Placemark>
<Placemark>
<name>Irishtown Nature Park</name>
<styleUrl>#icon-1899-097138-labelson-nodesc</styleUrl>
<Point>
<coordinates>
-6.19563419147041,53.33555834698865
</coordinates>
</Point>
</Placemark>
<Placemark>
<name>Capital Docks</name>
<styleUrl>#icon-1899-097138-labelson-nodesc</styleUrl>
<Point>
<coordinates>
-6.232043982196108,53.344835798401725
</coordinates>
</Point>
</Placemark>
<Placemark>
<name>SPAR</name>
<styleUrl>#icon-1899-097138-labelson-nodesc</styleUrl>
<Point>
<coordinates>
-6.231679482332328,53.34919094691049
</coordinates>
</Point>
</Placemark>
<Placemark>
<name>St Stephen's Green</name>
<styleUrl>#icon-1899-097138-labelson-nodesc</styleUrl>
<Point>
<coordinates>
-6.259160041809082,53.338150925581544
</coordinates>
</Point>
</Placemark>
<Placemark>
<name>The North Face</name>
<styleUrl>#icon-1899-097138-labelson-nodesc</styleUrl>
<Point>
<coordinates>
-6.260706888757026,53.34043617443946
</coordinates>
</Point>
</Placemark>
<Placemark>
<name>The Hairy Lemon</name>
<styleUrl>#icon-1899-097138-labelson-nodesc</styleUrl>
<Point>
<coordinates>
-6.263844803160515,53.341258622335765
</coordinates>
</Point>
</Placemark>
<Placemark>
<name>Dublin Bus Stop No 277</name>
<styleUrl>#icon-1899-097138-labelson-nodesc</styleUrl>
<Point>
<coordinates>
-6.260320369267337,53.350705624903135
</coordinates>
</Point>
</Placemark>
<Placemark>
<name>Terminal 2B</name>
<styleUrl>#icon-1899-097138-labelson-nodesc</styleUrl>
<Point>
<coordinates>
19.260181188583374,47.43209364610356
</coordinates>
</Point>
</Placemark>
<Placemark>
<name>Kazincbarcika buszpályaudvar</name>
<styleUrl>#icon-1899-097138-labelson-nodesc</styleUrl>
<Point>
<coordinates>
20.615874752738534,48.245247297101166
</coordinates>
</Point>
</Placemark>
<Placemark>
<name>Alfi</name>
<styleUrl>#icon-1899-097138-labelson-nodesc</styleUrl>
<Point>
<coordinates>
20.618472611749763,48.24571890509063
</coordinates>
</Point>
</Placemark>
<Placemark>
<name>royal</name>
<styleUrl>#icon-1899-097138-labelson-nodesc</styleUrl>
<Point>
<coordinates>
20.623236639587855,48.25636583221292
</coordinates>
</Point>
</Placemark>
<Placemark>
<name>OTP Bank</name>
<styleUrl>#icon-1899-097138-labelson-nodesc</styleUrl>
<Point>
<coordinates>
20.62258792907691,48.25240026223396
</coordinates>
</Point>
</Placemark>
<Placemark>
<name>Burger King</name>
<styleUrl>#icon-1899-097138-labelson-nodesc</styleUrl>
<Point>
<coordinates>
20.837554940058507,48.10699053062952
</coordinates>
</Point>
</Placemark>
<Placemark>
<name>Dt@Desseffwy-Arisztid</name>
<styleUrl>#icon-1899-097138-labelson-nodesc</styleUrl>
<Point>
<coordinates>
20.783447803367324,48.095370901032666
</coordinates>
</Point>
</Placemark>
<Placemark>
<name>Cafe Frei</name>
<styleUrl>#icon-1899-097138-labelson-nodesc</styleUrl>
<Point>
<coordinates>
20.786879251763693,48.102577093887916
</coordinates>
</Point>
</Placemark>
<Placemark>
<name>OTP Bank</name>
<styleUrl>#icon-1899-097138-labelson-nodesc</styleUrl>
<Point>
<coordinates>
20.786969167124695,48.10024694201843
</coordinates>
</Point>
</Placemark>
<Placemark>
<name>Legenda Sörkert</name>
<styleUrl>#icon-1899-097138-labelson-nodesc</styleUrl>
<Point>
<coordinates>
19.14122471614692,47.510718550284885
</coordinates>
</Point>
</Placemark>
<Placemark>
<name>Margit híd, budai hídfő (H5)</name>
<styleUrl>#icon-1899-097138-labelson-nodesc</styleUrl>
<Point>
<coordinates>
19.039252906568436,47.514602950523894
</coordinates>
</Point>
</Placemark>
<Placemark>
<name>Villanyrendőr (1V, 2V)</name>
<styleUrl>#icon-1899-097138-labelson-nodesc</styleUrl>
<Point>
<coordinates>
20.785190095194896,48.10250664562095
</coordinates>
</Point>
</Placemark>
<Placemark>
<name>Avasi Kilátó</name>
<styleUrl>#icon-1899-097138-labelson-nodesc</styleUrl>
<Point>
<coordinates>
20.77563956092521,48.09941298351989
</coordinates>
</Point>
</Placemark>
<Placemark>
<name>OMV</name>
<styleUrl>#icon-1899-097138-labelson-nodesc</styleUrl>
<Point>
<coordinates>
20.7899402,48.1056444
</coordinates>
</Point>
</Placemark>
<Placemark>
<name>Paprika Pub</name>
<styleUrl>#icon-1899-097138-labelson-nodesc</styleUrl>
<Point>
<coordinates>
20.79210881087557,48.10684158108503
</coordinates>
</Point>
</Placemark>
<Placemark>
<name>Tiszaújvárosi Termál és Strandfürdő</name>
<styleUrl>#icon-1899-097138-labelson-nodesc</styleUrl>
<Point>
<coordinates>
21.04847095600158,47.93079812421248
</coordinates>
</Point>
</Placemark>
<Placemark>
<name>Sajószöged</name>
<styleUrl>#icon-1899-097138-labelson-nodesc</styleUrl>
<Point>
<coordinates>
21.009105962520685,47.94551103594426
</coordinates>
</Point>
</Placemark>
<Placemark>
<name>Szombathely vasútállomás</name>
<styleUrl>#icon-1899-097138-labelson-nodesc</styleUrl>
<Point>
<coordinates>
16.63197548661053,47.237492483835645
</coordinates>
</Point>
</Placemark>
<Placemark>
<name>DECK bistro and bar</name>
<styleUrl>#icon-1899-097138-labelson-nodesc</styleUrl>
<Point>
<coordinates>
16.59980500748277,47.23585620146336
</coordinates>
</Point>
</Placemark>
<Placemark>
<name>Csónakázó tó</name>
<styleUrl>#icon-1899-097138-labelson-nodesc</styleUrl>
<Point>
<coordinates>
16.599886962973994,47.234922419377654
</coordinates>
</Point>
</Placemark>
<Placemark>
<name>Lidó Strand</name>
<styleUrl>#icon-1899-097138-labelson-nodesc</styleUrl>
<Point>
<coordinates>
17.311825814607914,46.7540261002699
</coordinates>
</Point>
</Placemark>
<Placemark>
<name>Stromfeld Lakótelep</name>
<styleUrl>#icon-1899-097138-labelson-nodesc</styleUrl>
<Point>
<coordinates>
16.622566865032937,47.25349490671575
</coordinates>
</Point>
</Placemark>
<Placemark>
<name>Szimfónia Kávézó</name>
<styleUrl>#icon-1899-097138-labelson-nodesc</styleUrl>
<Point>
<coordinates>
16.62290255830853,47.228598009375766
</coordinates>
</Point>
</Placemark>
<Placemark>
<name>Café Frei Árkád</name>
<styleUrl>#icon-1899-097138-labelson-nodesc</styleUrl>
<Point>
<coordinates>
17.644773,47.689206
</coordinates>
</Point>
</Placemark>
<Placemark>
<name>Keleti pályaudvar (M2, M4)</name>
<styleUrl>#icon-1899-097138-labelson-nodesc</styleUrl>
<Point>
<coordinates>
19.081921577453613,47.500112032906
</coordinates>
</Point>
</Placemark>
<Placemark>
<name>Dunaharaszti vasútállomás</name>
<styleUrl>#icon-1899-097138-labelson-nodesc</styleUrl>
<Point>
<coordinates>
19.097039712130105,47.35309277174036
</coordinates>
</Point>
</Placemark>
<Placemark>
<name>Füzesabony vasútállomás</name>
<styleUrl>#icon-1899-097138-labelson-nodesc</styleUrl>
<Point>
<coordinates>
20.41452404039216,47.75115384770271
</coordinates>
</Point>
</Placemark>
<Placemark>
<name>Viking Sörpáholy</name>
<styleUrl>#icon-1899-097138-labelson-nodesc</styleUrl>
<Point>
<coordinates>
20.7825308050688,48.10203356276743
</coordinates>
</Point>
</Placemark>
<Placemark>
<name>TESCO Hipermarket</name>
<styleUrl>#icon-1899-097138-labelson-nodesc</styleUrl>
<Point>
<coordinates>
20.777179463747697,48.073699484206884
</coordinates>
</Point>
</Placemark>
<Placemark>
<name>Zugló vasútállomás (1, 1A)</name>
<styleUrl>#icon-1899-097138-labelson-nodesc</styleUrl>
<Point>
<coordinates>
19.099306983868615,47.51129066461369
</coordinates>
</Point>
</Placemark>
<Placemark>
<name>McDonald's</name>
<styleUrl>#icon-1899-097138-labelson-nodesc</styleUrl>
<Point>
<coordinates>
19.048244128797123,47.51321373559572
</coordinates>
</Point>
</Placemark>
<Placemark>
<name>Jászai Mari tér (4, 6)</name>
<styleUrl>#icon-1899-097138-labelson-nodesc</styleUrl>
<Point>
<coordinates>
19.048326117104867,47.51308114220246
</coordinates>
</Point>
</Placemark>
<Placemark>
<name>New Yorker</name>
<styleUrl>#icon-1899-097138-labelson-nodesc</styleUrl>
<Point>
<coordinates>
19.146987053770328,47.46310356205481
</coordinates>
</Point>
</Placemark>
<Placemark>
<name>Monor vasútállomás</name>
<styleUrl>#icon-1899-097138-labelson-nodesc</styleUrl>
<Point>
<coordinates>
19.437014485592023,47.34546391857431
</coordinates>
</Point>
</Placemark>
<Placemark>
<name>KöKi Terminal tetőkert</name>
<styleUrl>#icon-1899-097138-labelson-nodesc</styleUrl>
<Point>
<coordinates>
19.14769804541578,47.46296222439825
</coordinates>
</Point>
</Placemark>
<Placemark>
<name>Hotel Gloria Budapest City Center * * *</name>
<styleUrl>#icon-1899-097138-labelson-nodesc</styleUrl>
<Point>
<coordinates>
19.098052112609267,47.48104536238687
</coordinates>
</Point>
</Placemark>
<Placemark>
<name>Istanbul Kebab</name>
<styleUrl>#icon-1899-097138-labelson-nodesc</styleUrl>
<Point>
<coordinates>
19.08248463639608,47.500916324026555
</coordinates>
</Point>
</Placemark>
<Placemark>
<name>Szolnok vasútállomás</name>
<styleUrl>#icon-1899-097138-labelson-nodesc</styleUrl>
<Point>
<coordinates>
20.17567276954651,47.17901544911759
</coordinates>
</Point>
</Placemark>
<Placemark>
<name>Szent Flórián tér (BVK buszállomás)</name>
<styleUrl>#icon-1899-097138-labelson-nodesc</styleUrl>
<Point>
<coordinates>
20.64706981474784,48.24991393331279
</coordinates>
</Point>
</Placemark>
<Placemark>
<name>Vadna Park - Vadnai Tó</name>
<styleUrl>#icon-1899-097138-labelson-nodesc</styleUrl>
<Point>
<coordinates>
20.546942094468154,48.27262591193005
</coordinates>
</Point>
</Placemark>
<Placemark>
<name>Cinema Ózd</name>
<styleUrl>#icon-1899-097138-labelson-nodesc</styleUrl>
<Point>
<coordinates>
20.263658,48.221767
</coordinates>
</Point>
</Placemark>
<Placemark>
<name>INTERSPAR</name>
<styleUrl>#icon-1899-097138-labelson-nodesc</styleUrl>
<Point>
<coordinates>
20.2803249,48.2228597
</coordinates>
</Point>
</Placemark>
<Placemark>
<name>MediaMarkt</name>
<styleUrl>#icon-1899-097138-labelson-nodesc</styleUrl>
<Point>
<coordinates>
20.792430440383193,48.101746404947264
</coordinates>
</Point>
</Placemark>
<Placemark>
<name>Copy Shop</name>
<styleUrl>#icon-1899-097138-labelson-nodesc</styleUrl>
<Point>
<coordinates>
20.788546800613403,48.10551119251925
</coordinates>
</Point>
</Placemark>
<Placemark>
<name>OMV</name>
<styleUrl>#icon-1899-097138-labelson-nodesc</styleUrl>
<Point>
<coordinates>
20.784717161067743,48.08343285072858
</coordinates>
</Point>
</Placemark>
<Placemark>
<name>TESCO Hipermarket</name>
<styleUrl>#icon-1899-097138-labelson-nodesc</styleUrl>
<Point>
<coordinates>
21.023786751888156,47.93175414954872
</coordinates>
</Point>
</Placemark>
<Placemark>
<name>INTERSPAR</name>
<styleUrl>#icon-1899-097138-labelson-nodesc</styleUrl>
<Point>
<coordinates>
20.79235862365646,48.10252885972796
</coordinates>
</Point>
</Placemark>
<Placemark>
<name>Vág utca (75)</name>
<styleUrl>#icon-1899-097138-labelson-nodesc</styleUrl>
<Point>
<coordinates>
19.05574191173116,47.52376968395359
</coordinates>
</Point>
</Placemark>
<Placemark>
<name>Baross tér</name>
<styleUrl>#icon-1899-097138-labelson-nodesc</styleUrl>
<Point>
<coordinates>
19.0822434425354,47.500213508743514
</coordinates>
</Point>
</Placemark>
<Placemark>
<name>Zöld Küllő</name>
<styleUrl>#icon-1899-097138-labelson-nodesc</styleUrl>
<Point>
<coordinates>
19.084217542661552,47.51408321316412
</coordinates>
</Point>
</Placemark>
<Placemark>
<name>Dunakeszi alsó megállóhely</name>
<styleUrl>#icon-1899-097138-labelson-nodesc</styleUrl>
<Point>
<coordinates>
19.12907234733854,47.60729438591354
</coordinates>
</Point>
</Placemark>
<Placemark>
<name>Budafoki út (Szerémi sor) (153, 154, 212, 918)</name>
<styleUrl>#icon-1899-097138-labelson-nodesc</styleUrl>
<Point>
<coordinates>
19.05298775514412,47.47388616077232
</coordinates>
</Point>
</Placemark>
<Placemark>
<name>Grill Kebab</name>
<styleUrl>#icon-1899-097138-labelson-nodesc</styleUrl>
<Point>
<coordinates>
19.0508637125368,47.46080766539703
</coordinates>
</Point>
</Placemark>
<Placemark>
<name>Mol Tiszai Finomító</name>
<styleUrl>#icon-1899-097138-labelson-nodesc</styleUrl>
<Point>
<coordinates>
21.034046441759024,47.8975454453798
</coordinates>
</Point>
</Placemark>
<Placemark>
<name>Tisza sziget</name>
<styleUrl>#icon-1899-097138-labelson-nodesc</styleUrl>
<Point>
<coordinates>
21.074376,47.9107
</coordinates>
</Point>
</Placemark>
<Placemark>
<name>Sziget Csárda</name>
<styleUrl>#icon-1899-097138-labelson-nodesc</styleUrl>
<Point>
<coordinates>
21.07571138681712,47.91057533937726
</coordinates>
</Point>
</Placemark>
<Placemark>
<name>Vaja</name>
<styleUrl>#icon-1899-097138-labelson-nodesc</styleUrl>
<Point>
<coordinates>
22.17097,48.00108
</coordinates>
</Point>
</Placemark>
<Placemark>
<name>TESCO Extra</name>
<styleUrl>#icon-1899-097138-labelson-nodesc</styleUrl>
<Point>
<coordinates>
20.782363441928798,48.126693864918145
</coordinates>
</Point>
</Placemark>
<Placemark>
<name>Borsod-Abaúj-Zemplén Megyei Kórház és Egyetemi Oktató Kórház</name>
<styleUrl>#icon-1899-097138-labelson-nodesc</styleUrl>
<Point>
<coordinates>
20.789270560765083,48.12053008848698
</coordinates>
</Point>
</Placemark>
<Placemark>
<name>Villanyrendőr (14, 28, 34, 35, 35R, 38, 43, 44, AU1, 1É)</name>
<styleUrl>#icon-1899-097138-labelson-nodesc</styleUrl>
<Point>
<coordinates>
20.785427272711697,48.10231277681718
</coordinates>
</Point>
</Placemark>
<Placemark>
<name>Gömöri pályaudvar</name>
<styleUrl>#icon-1899-097138-labelson-nodesc</styleUrl>
<Point>
<coordinates>
20.800329744815826,48.10669328807053
</coordinates>
</Point>
</Placemark>
<Placemark>
<name>Miskolc 1 posta</name>
<styleUrl>#icon-1899-097138-labelson-nodesc</styleUrl>
<Point>
<coordinates>
20.785725116729736,48.10492371673841
</coordinates>
</Point>
</Placemark>
<Placemark>
<name>Nyíregyháza vasútállomás</name>
<styleUrl>#icon-1899-097138-labelson-nodesc</styleUrl>
<Point>
<coordinates>
21.706009410129045,47.946504399006294
</coordinates>
</Point>
</Placemark>
<Placemark>
<name>McDonald's</name>
<styleUrl>#icon-1899-097138-labelson-nodesc</styleUrl>
<Point>
<coordinates>
21.715879386000942,47.954155485367934
</coordinates>
</Point>
</Placemark>
<Placemark>
<name>Rossmann</name>
<styleUrl>#icon-1899-097138-labelson-nodesc</styleUrl>
<Point>
<coordinates>
20.791577696800232,48.10362336536847
</coordinates>
</Point>
</Placemark>
<Placemark>
<name>Bélkő-hegy</name>
<styleUrl>#icon-1899-097138-labelson-nodesc</styleUrl>
<Point>
<coordinates>
20.36774683956194,48.05814014544616
</coordinates>
</Point>
</Placemark>
<Placemark>
<name>McDonald's</name>
<styleUrl>#icon-1899-097138-labelson-nodesc</styleUrl>
<Point>
<coordinates>
20.78561884859145,48.083341607788164
</coordinates>
</Point>
</Placemark>
<Placemark>
<name>"A" Bolt</name>
<styleUrl>#icon-1899-097138-labelson-nodesc</styleUrl>
<Point>
<coordinates>
20.780387430414553,48.09052691951519
</coordinates>
</Point>
</Placemark>
<Placemark>
<name>Dt@Keleti-Blaha-Middleware~#</name>
<styleUrl>#icon-1899-097138-labelson-nodesc</styleUrl>
<Point>
<coordinates>
19.07441742034515,47.50019409694531
</coordinates>
</Point>
</Placemark>
<Placemark>
<name>Aldi</name>
<styleUrl>#icon-1899-097138-labelson-nodesc</styleUrl>
<Point>
<coordinates>
19.076861447533688,47.49863691436599
</coordinates>
</Point>
</Placemark>
<Placemark>
<name>McDonald's</name>
<styleUrl>#icon-1899-097138-labelson-nodesc</styleUrl>
<Point>
<coordinates>
19.081867933273315,47.50103799265269
</coordinates>
</Point>
</Placemark>
<Placemark>
<name>Pesti Pipi</name>
<styleUrl>#icon-1899-097138-labelson-nodesc</styleUrl>
<Point>
<coordinates>
19.098695,47.511135
</coordinates>
</Point>
</Placemark>
<Placemark>
<name>Nyékládháza vasútállomás</name>
<styleUrl>#icon-1899-097138-labelson-nodesc</styleUrl>
<Point>
<coordinates>
20.84014358485485,47.99226567479677
</coordinates>
</Point>
</Placemark>
<Placemark>
<name>Önkiszolgáló mosoda - Self Service Laundry - Budapest, VII. Dohány utca 37</name>
<styleUrl>#icon-1899-097138-labelson-nodesc</styleUrl>
<Point>
<coordinates>
19.068094982956307,47.49734555185305
</coordinates>
</Point>
</Placemark>
<Placemark>
<name>Termál és Strandfürdő</name>
<styleUrl>#icon-1899-097138-labelson-nodesc</styleUrl>
<Point>
<coordinates>
20.841214656829834,47.387396485367006
</coordinates>
</Point>
</Placemark>
<Placemark>
<name>TESCO Hipermarket</name>
<styleUrl>#icon-1899-097138-labelson-nodesc</styleUrl>
<Point>
<coordinates>
20.90566942904477,47.303570707704765
</coordinates>
</Point>
</Placemark>
<Placemark>
<name>Nimród**** Bioszálloda és Bioétterem</name>
<styleUrl>#icon-1899-097138-labelson-nodesc</styleUrl>
<Point>
<coordinates>
20.925077138520656,47.316989535720346
</coordinates>
</Point>
</Placemark>
<Placemark>
<name>Burger King</name>
<styleUrl>#icon-1899-097138-labelson-nodesc</styleUrl>
<Point>
<coordinates>
19.08186088740291,47.5008307085872
</coordinates>
</Point>
</Placemark>
<Placemark>
<name>McDonald's</name>
<styleUrl>#icon-1899-097138-labelson-nodesc</styleUrl>
<Point>
<coordinates>
19.071026994797066,47.49600810827071
</coordinates>
</Point>
</Placemark>
<Placemark>
<name>Istanbul Kebab Gyros</name>
<styleUrl>#icon-1899-097138-labelson-nodesc</styleUrl>
<Point>
<coordinates>
19.06913812786889,47.49743012665747
</coordinates>
</Point>
</Placemark>
<Placemark>
<name>Jane Haining rakpart</name>
<styleUrl>#icon-1899-097138-labelson-nodesc</styleUrl>
<Point>
<coordinates>
19.04875874519348,47.494639295456146
</coordinates>
</Point>
</Placemark>
<Placemark>
<name>ALDI</name>
<styleUrl>#icon-1899-097138-labelson-nodesc</styleUrl>
<Point>
<coordinates>
19.05864035747139,47.49392298328374
</coordinates>
</Point>
</Placemark>
<Placemark>
<name>Csendes Vintage Bar and Cafe</name>
<styleUrl>#icon-1899-097138-labelson-nodesc</styleUrl>
<Point>
<coordinates>
19.060457595117917,47.492877426159005
</coordinates>
</Point>
</Placemark>
<Placemark>
<name>Roni ABC</name>
<styleUrl>#icon-1899-097138-labelson-nodesc</styleUrl>
<Point>
<coordinates>
19.081187749157696,47.50152316532329
</coordinates>
</Point>
</Placemark>
<Placemark>
<name>StarKebab</name>
<styleUrl>#icon-1899-097138-labelson-nodesc</styleUrl>
<Point>
<coordinates>
19.05708260012198,47.50941054322815
</coordinates>
</Point>
</Placemark>
<Placemark>
<name>IKEA</name>
<styleUrl>#icon-1899-097138-labelson-nodesc</styleUrl>
<Point>
<coordinates>
19.137999590978485,47.505179791600206
</coordinates>
</Point>
</Placemark>
<Placemark>
<name>Kao Niaw Ping Kai</name>
<styleUrl>#icon-1899-097138-labelson-nodesc</styleUrl>
<Point>
<coordinates>
19.077622729082172,47.499058736567186
</coordinates>
</Point>
</Placemark>
<Placemark>
<name>Fresh24Dental</name>
<styleUrl>#icon-1899-097138-labelson-nodesc</styleUrl>
<Point>
<coordinates>
20.753435,48.064873
</coordinates>
</Point>
</Placemark>
<Placemark>
<name>Belga Söröző</name>
<styleUrl>#icon-1899-097138-labelson-nodesc</styleUrl>
<Point>
<coordinates>
20.78526428267691,48.09383949388212
</coordinates>
</Point>
</Placemark>
<Placemark>
<name>Piac Presszó</name>
<styleUrl>#icon-1899-097138-labelson-nodesc</styleUrl>
<Point>
<coordinates>
20.792428403432822,48.10442660990531
</coordinates>
</Point>
</Placemark>
<Placemark>
<name>Burger King</name>
<styleUrl>#icon-1899-097138-labelson-nodesc</styleUrl>
<Point>
<coordinates>
19.05198804740096,47.46088178151815
</coordinates>
</Point>
</Placemark>
<Placemark>
<name>Office Garden 2</name>
<styleUrl>#icon-1899-097138-labelson-nodesc</styleUrl>
<Point>
<coordinates>
19.049052592871295,47.460771171658216
</coordinates>
</Point>
</Placemark>
<Placemark>
<name>Sever Étterem</name>
<styleUrl>#icon-1899-097138-labelson-nodesc</styleUrl>
<Point>
<coordinates>
20.788628070301105,48.10430526872051
</coordinates>
</Point>
</Placemark>
<Placemark>
<name>Tiszai pályaudvar (1V, 2V)</name>
<styleUrl>#icon-1899-097138-labelson-nodesc</styleUrl>
<Point>
<coordinates>
20.809615139230182,48.09961569937945
</coordinates>
</Point>
</Placemark>
<Placemark>
<name>Városi Sportcsarnok</name>
<styleUrl>#icon-1899-097138-labelson-nodesc</styleUrl>
<Point>
<coordinates>
20.273849856562105,48.2236417116505
</coordinates>
</Point>
</Placemark>
<Placemark>
<name>Medicover</name>
<styleUrl>#icon-1899-097138-labelson-nodesc</styleUrl>
<Point>
<coordinates>
20.78573,48.0982
</coordinates>
</Point>
</Placemark>
<Placemark>
<name>Wok Thai</name>
<styleUrl>#icon-1899-097138-labelson-nodesc</styleUrl>
<Point>
<coordinates>
20.78287,48.102665
</coordinates>
</Point>
</Placemark>
<Placemark>
<name>Döner King</name>
<styleUrl>#icon-1899-097138-labelson-nodesc</styleUrl>
<Point>
<coordinates>
20.78790754293931,48.10258888163946
</coordinates>
</Point>
</Placemark>
<Placemark>
<name>Alfi (Reál)</name>
<styleUrl>#icon-1899-097138-labelson-nodesc</styleUrl>
<Point>
<coordinates>
20.787084128511037,48.09898280159818
</coordinates>
</Point>
</Placemark>
<Placemark>
<name>Magyaros Gyorsétterem</name>
<styleUrl>#icon-1899-097138-labelson-nodesc</styleUrl>
<Point>
<coordinates>
20.79235166409299,48.10273560276032
</coordinates>
</Point>
</Placemark>
<Placemark>
<name>Kormányablak</name>
<styleUrl>#icon-1899-097138-labelson-nodesc</styleUrl>
<Point>
<coordinates>
20.784107091498047,48.10136328081243
</coordinates>
</Point>
</Placemark>
<Placemark>
<name>dt@szentgyorgyut~#</name>
<styleUrl>#icon-1899-097138-labelson-nodesc</styleUrl>
<Point>
<coordinates>
20.78320239597422,48.074698081483135
</coordinates>
</Point>
</Placemark>
<Placemark>
<name>SPAR</name>
<styleUrl>#icon-1899-097138-labelson-nodesc</styleUrl>
<Point>
<coordinates>
20.792861583283297,48.09940521057069
</coordinates>
</Point>
</Placemark>
<Placemark>
<name>SPAR</name>
<styleUrl>#icon-1899-097138-labelson-nodesc</styleUrl>
<Point>
<coordinates>
20.776813542734466,48.083854296253996
</coordinates>
</Point>
</Placemark>
<Placemark>
<name>Cinema City</name>
<styleUrl>#icon-1899-097138-labelson-nodesc</styleUrl>
<Point>
<coordinates>
20.788657460210786,48.10629079537426
</coordinates>
</Point>
</Placemark>
<Placemark>
<name>A LEVES</name>
<styleUrl>#icon-1899-097138-labelson-nodesc</styleUrl>
<Point>
<coordinates>
20.787525,48.102722
</coordinates>
</Point>
</Placemark>
<Placemark>
<name>Miskolci Egyetem</name>
<styleUrl>#icon-1899-097138-labelson-nodesc</styleUrl>
<Point>
<coordinates>
20.766843776021837,48.081399552560576
</coordinates>
</Point>
</Placemark>
<Placemark>
<name>Járdánháza Ált. Iskola</name>
<styleUrl>#icon-1899-097138-labelson-nodesc</styleUrl>
<Point>
<coordinates>
20.254322829638443,48.15872278399546
</coordinates>
</Point>
</Placemark>
<Placemark>
<name>Kárpát utca</name>
<styleUrl>#icon-1899-097138-labelson-nodesc</styleUrl>
<Point>
<coordinates>
19.056794,47.525611
</coordinates>
</Point>
</Placemark>
<Placemark>
<name>Mester gyros Váci út</name>
<styleUrl>#icon-1899-097138-labelson-nodesc</styleUrl>
<Point>
<coordinates>
19.065267741680145,47.52881100234832
</coordinates>
</Point>
</Placemark>
<Placemark>
<name>Állami Egészségügyi Ellátó Központ (ÁEEK)</name>
<styleUrl>#icon-1899-097138-labelson-nodesc</styleUrl>
<Point>
<coordinates>
19.00108086636001,47.50879004053273
</coordinates>
</Point>
</Placemark>
<Placemark>
<name>Rockwell Klub</name>
<styleUrl>#icon-1899-097138-labelson-nodesc</styleUrl>
<Point>
<coordinates>
20.768311947729067,48.07998356570682
</coordinates>
</Point>
</Placemark>
<Placemark>
<name>Antalya Kebab</name>
<styleUrl>#icon-1899-097138-labelson-nodesc</styleUrl>
<Point>
<coordinates>
19.052933,47.511579
</coordinates>
</Point>
</Placemark>
<Placemark>
<name>Medicover Eiffel Klinika</name>
<styleUrl>#icon-1899-097138-labelson-nodesc</styleUrl>
<Point>
<coordinates>
19.058476294115547,47.510005014479326
</coordinates>
</Point>
</Placemark>
<Placemark>
<name>SPAR</name>
<styleUrl>#icon-1899-097138-labelson-nodesc</styleUrl>
<Point>
<coordinates>
21.717608941601785,47.95810676045676
</coordinates>
</Point>
</Placemark>
<Placemark>
<name>Europa hotel</name>
<styleUrl>#icon-1899-097138-labelson-nodesc</styleUrl>
<Point>
<coordinates>
21.720773576105664,47.95739795292054
</coordinates>
</Point>
</Placemark>
<Placemark>
<name>Auchan</name>
<styleUrl>#icon-1899-097138-labelson-nodesc</styleUrl>
<Point>
<coordinates>
20.801215020918036,48.05786705380971
</coordinates>
</Point>
</Placemark>
<Placemark>
<name>Fincsi söröző</name>
<styleUrl>#icon-1899-097138-labelson-nodesc</styleUrl>
<Point>
<coordinates>
20.77863177736037,48.07801574043091
</coordinates>
</Point>
</Placemark>
<Placemark>
<name>Miskolc 23 Posta</name>
<styleUrl>#icon-1899-097138-labelson-nodesc</styleUrl>
<Point>
<coordinates>
20.777853853455913,48.081247501438405
</coordinates>
</Point>
</Placemark>
<Placemark>
<name>Desszertem</name>
<styleUrl>#icon-1899-097138-labelson-nodesc</styleUrl>
<Point>
<coordinates>
20.78311713822932,48.10297394228284
</coordinates>
</Point>
</Placemark>
<Placemark>
<name>rózsakert presszó</name>
<styleUrl>#icon-1899-097138-labelson-nodesc</styleUrl>
<Point>
<coordinates>
21.03053092956543,47.93049621582031
</coordinates>
</Point>
</Placemark>
<Placemark>
<name>Jabil</name>
<styleUrl>#icon-1899-097138-labelson-nodesc</styleUrl>
<Point>
<coordinates>
21.05250488218235,47.92692839562336
</coordinates>
</Point>
</Placemark>
<Placemark>
<name>Keleti Blokk</name>
<styleUrl>#icon-1899-097138-labelson-nodesc</styleUrl>
<Point>
<coordinates>
20.789930820465088,48.1024089579367
</coordinates>
</Point>
</Placemark>
<Placemark>
<name>Kormányablak</name>
<styleUrl>#icon-1899-097138-labelson-nodesc</styleUrl>
<Point>
<coordinates>
20.775808292775082,48.107389415157996
</coordinates>
</Point>
</Placemark>
<Placemark>
<name>Búza Tér Piac</name>
<styleUrl>#icon-1899-097138-labelson-nodesc</styleUrl>
<Point>
<coordinates>
20.792585983533012,48.10542302171351
</coordinates>
</Point>
</Placemark>
<Placemark>
<name>Szinvapark</name>
<styleUrl>#icon-1899-097138-labelson-nodesc</styleUrl>
<Point>
<coordinates>
20.79241293138021,48.102541084514264
</coordinates>
</Point>
</Placemark>
<Placemark>
<name>Vodafone Macropolis</name>
<styleUrl>#icon-1899-097138-labelson-nodesc</styleUrl>
<Point>
<coordinates>
20.787933229477574,48.107531921994855
</coordinates>
</Point>
</Placemark>
<Placemark>
<name>Cinema City</name>
<styleUrl>#icon-1899-097138-labelson-nodesc</styleUrl>
<Point>
<coordinates>
19.059802197730907,47.514233549183935
</coordinates>
</Point>
</Placemark>
<Placemark>
<name>MOL</name>
<styleUrl>#icon-1899-097138-labelson-nodesc</styleUrl>
<Point>
<coordinates>
19.081090751303073,47.52256880946818
</coordinates>
</Point>
</Placemark>
<Placemark>
<name>Samsung SDI</name>
<styleUrl>#icon-1899-097138-labelson-nodesc</styleUrl>
<Point>
<coordinates>
19.167751119851914,47.67766921125816
</coordinates>
</Point>
</Placemark>
<Placemark>
<name>Goliat Hotel Budapest</name>
<styleUrl>#icon-1899-097138-labelson-nodesc</styleUrl>
<Point>
<coordinates>
19.084372280984287,47.526198666345294
</coordinates>
</Point>
</Placemark>
<Placemark>
<name>Coop</name>
<styleUrl>#icon-1899-097138-labelson-nodesc</styleUrl>
<Point>
<coordinates>
20.809108,48.099346
</coordinates>
</Point>
</Placemark>
<Placemark>
<name>Informatika épület</name>
<styleUrl>#icon-1899-097138-labelson-nodesc</styleUrl>
<Point>
<coordinates>
20.767521917014108,48.082698044855015
</coordinates>
</Point>
</Placemark>
<Placemark>
<name>Deichmann Pláza</name>
<styleUrl>#icon-1899-097138-labelson-nodesc</styleUrl>
<Point>
<coordinates>
20.789431,48.106247
</coordinates>
</Point>
</Placemark>
<Placemark>
<name>XXXII. előadóterem</name>
<styleUrl>#icon-1899-097138-labelson-nodesc</styleUrl>
<Point>
<coordinates>
20.765061378479004,48.08252298639622
</coordinates>
</Point>
</Placemark>
<Placemark>
<name>Monster Beach Ózd</name>
<styleUrl>#icon-1899-097138-labelson-nodesc</styleUrl>
<Point>
<coordinates>
20.287153905923518,48.22064754477308
</coordinates>
</Point>
</Placemark>
<Placemark>
<name>Fehérkő Kilátó</name>
<styleUrl>#icon-1899-097138-labelson-nodesc</styleUrl>
<Point>
<coordinates>
20.62728855553459,48.09621500953087
</coordinates>
</Point>
</Placemark>
<Placemark>
<name>Lillafüred</name>
<styleUrl>#icon-1899-097138-labelson-nodesc</styleUrl>
<Point>
<coordinates>
20.622450206019675,48.10324222559851
</coordinates>
</Point>
</Placemark>
<Placemark>
<name>Kékestető (1014m)</name>
<styleUrl>#icon-1899-097138-labelson-nodesc</styleUrl>
<Point>
<coordinates>
20.007905358684663,47.872514379607836
</coordinates>
</Point>
</Placemark>
<Placemark>
<name>Bajusz Romkocsma</name>
<styleUrl>#icon-1899-097138-labelson-nodesc</styleUrl>
<Point>
<coordinates>
20.2682136744261,48.2223151344806
</coordinates>
</Point>
</Placemark>
<Placemark>
<name>SPAR</name>
<styleUrl>#icon-1899-097138-labelson-nodesc</styleUrl>
<Point>
<coordinates>
20.7896361,48.1031686
</coordinates>
</Point>
</Placemark>
<Placemark>
<name>Miskolc 3-as Posta</name>
<styleUrl>#icon-1899-097138-labelson-nodesc</styleUrl>
<Point>
<coordinates>
20.792794732412663,48.10253035784205
</coordinates>
</Point>
</Placemark>
<Placemark>
<name>KFC Miskolc</name>
<styleUrl>#icon-1899-097138-labelson-nodesc</styleUrl>
<Point>
<coordinates>
20.788378,48.106448
</coordinates>
</Point>
</Placemark>
<Placemark>
<name>Forint Söröző</name>
<styleUrl>#icon-1899-097138-labelson-nodesc</styleUrl>
<Point>
<coordinates>
20.785389,48.101833
</coordinates>
</Point>
</Placemark>
<Placemark>
<name>Rockabilly Chicken</name>
<styleUrl>#icon-1899-097138-labelson-nodesc</styleUrl>
<Point>
<coordinates>
20.777163540230745,48.073689888223946
</coordinates>
</Point>
</Placemark>
<Placemark>
<name>Dobó István tér</name>
<styleUrl>#icon-1899-097138-labelson-nodesc</styleUrl>
<Point>
<coordinates>
20.377063751220703,47.90250542520215
</coordinates>
</Point>
</Placemark>
<Placemark>
<name>Arlói-tó</name>
<styleUrl>#icon-1899-097138-labelson-nodesc</styleUrl>
<Point>
<coordinates>
20.26792967167993,48.16428460725868
</coordinates>
</Point>
</Placemark>
<Placemark>
<name>E/5</name>
<styleUrl>#icon-1899-097138-labelson-nodesc</styleUrl>
<Point>
<coordinates>
20.769995436184917,48.08191529570163
</coordinates>
</Point>
</Placemark>
<Placemark>
<name>RIO</name>
<styleUrl>#icon-1899-097138-labelson-nodesc</styleUrl>
<Point>
<coordinates>
20.29790828550994,48.217770982264454
</coordinates>
</Point>
</Placemark>
<Placemark>
<name>Miskolc Plaza</name>
<styleUrl>#icon-1899-097138-labelson-nodesc</styleUrl>
<Point>
<coordinates>
20.788882087990263,48.10632556194464
</coordinates>
</Point>
</Placemark>
<Placemark>
<name>Kemény Dénes Városi Sportuszoda</name>
<styleUrl>#icon-1899-097138-labelson-nodesc</styleUrl>
<Point>
<coordinates>
20.76556379706804,48.076880648623444
</coordinates>
</Point>
</Placemark>
<Placemark>
<name>Miskolctapolca</name>
<styleUrl>#icon-1899-097138-labelson-nodesc</styleUrl>
<Point>
<coordinates>
20.74718713760376,48.06246440772351
</coordinates>
</Point>
</Placemark>
<Placemark>
<name>Nagyi</name>
<styleUrl>#icon-1899-097138-labelson-nodesc</styleUrl>
<Point>
<coordinates>
20.8038148,48.1146392
</coordinates>
</Point>
</Placemark>
<Placemark>
<name>Ózd</name>
<styleUrl>#icon-1899-097138-labelson-nodesc</styleUrl>
<Point>
<coordinates>
20.2814034055179,48.21909883656561
</coordinates>
</Point>
</Placemark>
<Placemark>
<name>Chili Étterem És Bár</name>
<styleUrl>#icon-1899-097138-labelson-nodesc</styleUrl>
<Point>
<coordinates>
20.27954607782619,48.22132273629719
</coordinates>
</Point>
</Placemark>
<Placemark>
<name>aCapella Étterem</name>
<styleUrl>#icon-1899-097138-labelson-nodesc</styleUrl>
<Point>
<coordinates>
20.280456093330965,48.21905272883096
</coordinates>
</Point>
</Placemark>
<Placemark>
<name>Füzes Vendéglő</name>
<styleUrl>#icon-1899-097138-labelson-nodesc</styleUrl>
<Point>
<coordinates>
20.26748181676121,48.22661690500331
</coordinates>
</Point>
</Placemark>
<Placemark>
<name>KFC</name>
<styleUrl>#icon-1899-097138-labelson-nodesc</styleUrl>
<Point>
<coordinates>
19.148178025784855,47.46259702980726
</coordinates>
</Point>
</Placemark>
<Placemark>
<name>London Luton Airport (LTN)</name>
<styleUrl>#icon-1899-097138-labelson-nodesc</styleUrl>
<Point>
<coordinates>
-0.3752779985840956,51.87971119842466
</coordinates>
</Point>
</Placemark>
<Placemark>
<name>SBE Ltd</name>
<styleUrl>#icon-1899-097138-labelson-nodesc</styleUrl>
<Point>
<coordinates>
0.8682276466471809,51.13588994906014
</coordinates>
</Point>
</Placemark>
<Placemark>
<name>Burger King</name>
<styleUrl>#icon-1899-097138-labelson-nodesc</styleUrl>
<Point>
<coordinates>
0.8697217,51.1479866
</coordinates>
</Point>
</Placemark>
<Placemark>
<name>Ashford</name>
<styleUrl>#icon-1899-097138-labelson-nodesc</styleUrl>
<Point>
<coordinates>
0.872189998626709,51.14801433562389
</coordinates>
</Point>
</Placemark>
<Placemark>
<name>Hattyú Kávézó</name>
<styleUrl>#icon-1899-097138-labelson-nodesc</styleUrl>
<Point>
<coordinates>
19.02858433438849,47.50771827325023
</coordinates>
</Point>
</Placemark>
<Placemark>
<name>WestEnd City Center</name>
<styleUrl>#icon-1899-097138-labelson-nodesc</styleUrl>
<Point>
<coordinates>
19.059126004170153,47.51307513243781
</coordinates>
</Point>
</Placemark>
<Placemark>
<name>A38 Hajó</name>
<styleUrl>#icon-1899-097138-labelson-nodesc</styleUrl>
<Point>
<coordinates>
19.062924005975336,47.476559001047946
</coordinates>
</Point>
</Placemark>
<Placemark>
<name>KöKi Terminál</name>
<styleUrl>#icon-1899-097138-labelson-nodesc</styleUrl>
<Point>
<coordinates>
19.147475845593398,47.463024219664895
</coordinates>
</Point>
</Placemark>
<Placemark>
<name>Quays Bar</name>
<styleUrl>#icon-1899-097138-labelson-nodesc</styleUrl>
<Point>
<coordinates>
-6.2630782111320995,53.34564958209727
</coordinates>
</Point>
</Placemark>
<Placemark>
<name>McDonald's</name>
<styleUrl>#icon-1899-097138-labelson-nodesc</styleUrl>
<Point>
<coordinates>
-0.16337871551513672,51.15571611579125
</coordinates>
</Point>
</Placemark>
<Placemark>
<name>London Gatwick Airport (LGW)</name>
<styleUrl>#icon-1899-097138-labelson-nodesc</styleUrl>
<Point>
<coordinates>
-0.17425775527954102,51.15870377944883
</coordinates>
</Point>
</Placemark>
<Placemark>
<name>London St Pancras International Railway Station (STP)</name>
<styleUrl>#icon-1899-097138-labelson-nodesc</styleUrl>
<Point>
<coordinates>
-0.12526988983154297,51.53031927385486
</coordinates>
</Point>
</Placemark>
<Placemark>
<name>Starbucks</name>
<styleUrl>#icon-1899-097138-labelson-nodesc</styleUrl>
<Point>
<coordinates>
-0.096244,51.507986
</coordinates>
</Point>
</Placemark>
<Placemark>
<name>Riverbank Way Ashford</name>
<styleUrl>#icon-1899-097138-labelson-nodesc</styleUrl>
<Point>
<coordinates>
0.8815607603662421,51.129092054823616
</coordinates>
</Point>
</Placemark>
<Placemark>
<name>Burger King</name>
<styleUrl>#icon-1899-097138-labelson-nodesc</styleUrl>
<Point>
<coordinates>
-0.3771535725916353,51.87958701747382
</coordinates>
</Point>
</Placemark>
<Placemark>
<name>M3 autópálya</name>
<styleUrl>#icon-1899-097138-labelson-nodesc</styleUrl>
<Point>
<coordinates>
19.122133255004883,47.54939893427476
</coordinates>
</Point>
</Placemark>
<Placemark>
<name>BioHair</name>
<styleUrl>#icon-1899-097138-labelson-nodesc</styleUrl>
<Point>
<coordinates>
19.148051953174843,47.46271750819314
</coordinates>
</Point>
</Placemark>
<Placemark>
<name>Erste Bank</name>
<styleUrl>#icon-1899-097138-labelson-nodesc</styleUrl>
<Point>
<coordinates>
19.148226060019574,47.46303605423909
</coordinates>
</Point>
</Placemark>
<Placemark>
<name>Burger King</name>
<styleUrl>#icon-1899-097138-labelson-nodesc</styleUrl>
<Point>
<coordinates>
19.055908812640755,47.51019803957169
</coordinates>
</Point>
</Placemark>
<Placemark>
<name>OTP Bank</name>
<styleUrl>#icon-1899-097138-labelson-nodesc</styleUrl>
<Point>
<coordinates>
19.145703436943926,47.463162345148355
</coordinates>
</Point>
</Placemark>
<Placemark>
<name>Starbucks</name>
<styleUrl>#icon-1899-097138-labelson-nodesc</styleUrl>
<Point>
<coordinates>
-0.375052,51.879944
</coordinates>
</Point>
</Placemark>
<Placemark>
<name>Hollywood Bowl</name>
<styleUrl>#icon-1899-097138-labelson-nodesc</styleUrl>
<Point>
<coordinates>
0.875546587235771,51.14743838943945
</coordinates>
</Point>
</Placemark>
<Placemark>
<name>Asda</name>
<styleUrl>#icon-1899-097138-labelson-nodesc</styleUrl>
<Point>
<coordinates>
0.8784887790713735,51.13433625109928
</coordinates>
</Point>
</Placemark>
<Placemark>
<name>Club Chemistry</name>
<styleUrl>#icon-1899-097138-labelson-nodesc</styleUrl>
<Point>
<coordinates>
1.0767713646394546,51.274486140392774
</coordinates>
</Point>
</Placemark>
<Placemark>
<name>The Loft</name>
<styleUrl>#icon-1899-097138-labelson-nodesc</styleUrl>
<Point>
<coordinates>
1.0789200159988388,51.27764983697634
</coordinates>
</Point>
</Placemark>
<Placemark>
<name>Chicken Cottage</name>
<styleUrl>#icon-1899-097138-labelson-nodesc</styleUrl>
<Point>
<coordinates>
1.076363660349569,51.28112652296067
</coordinates>
</Point>
</Placemark>
<Placemark>
<name>Platform 5</name>
<styleUrl>#icon-1899-097138-labelson-nodesc</styleUrl>
<Point>
<coordinates>
0.8757344380756794,51.14327971258122
</coordinates>
</Point>
</Placemark>
<Placemark>
<name>Great Chart Golf and Leisure</name>
<styleUrl>#icon-1899-097138-labelson-nodesc</styleUrl>
<Point>
<coordinates>
0.803723931312561,51.15147653128383
</coordinates>
</Point>
</Placemark>
<Placemark>
<name>London Marylebone Railway Station (MYB)</name>
<styleUrl>#icon-1899-097138-labelson-nodesc</styleUrl>
<Point>
<coordinates>
-0.16287792562777317,51.52279298251414
</coordinates>
</Point>
</Placemark>
<Placemark>
<name>Alma road</name>
<styleUrl>#icon-1899-097138-labelson-nodesc</styleUrl>
<Point>
<coordinates>
-1.3231553904125806,52.0606874557021
</coordinates>
</Point>
</Placemark>
<Placemark>
<name>Londis</name>
<styleUrl>#icon-1899-097138-labelson-nodesc</styleUrl>
<Point>
<coordinates>
-1.3270987045916562,52.062288692439154
</coordinates>
</Point>
</Placemark>
<Placemark>
<name>Faurecia</name>
<styleUrl>#icon-1899-097138-labelson-nodesc</styleUrl>
<Point>
<coordinates>
-1.3133799267448434,52.06801978768273
</coordinates>
</Point>
</Placemark>
<Placemark>
<name>Tesco Express</name>
<styleUrl>#icon-1899-097138-labelson-nodesc</styleUrl>
<Point>
<coordinates>
-1.321924,52.0665267
</coordinates>
</Point>
</Placemark>
<Placemark>
<name>Poundland</name>
<styleUrl>#icon-1899-097138-labelson-nodesc</styleUrl>
<Point>
<coordinates>
-1.3329356,52.0614747
</coordinates>
</Point>
</Placemark>
<Placemark>
<name>O2</name>
<styleUrl>#icon-1899-097138-labelson-nodesc</styleUrl>
<Point>
<coordinates>
-1.3340821064107737,52.06313358819917
</coordinates>
</Point>
</Placemark>
<Placemark>
<name>CeX</name>
<styleUrl>#icon-1899-097138-labelson-nodesc</styleUrl>
<Point>
<coordinates>
-1.336986,52.061245
</coordinates>
</Point>
</Placemark>
<Placemark>
<name>Royal Mail Sorting Office</name>
<styleUrl>#icon-1899-097138-labelson-nodesc</styleUrl>
<Point>
<coordinates>
-1.3276959900575116,52.06147466993329
</coordinates>
</Point>
</Placemark>
<Placemark>
<name>Banbury Kebab and Burger House</name>
<styleUrl>#icon-1899-097138-labelson-nodesc</styleUrl>
<Point>
<coordinates>
-1.3350909948349,52.062108716398576
</coordinates>
</Point>
</Placemark>
<Placemark>
<name>The Exchange (Wetherspoon)</name>
<styleUrl>#icon-1899-097138-labelson-nodesc</styleUrl>
<Point>
<coordinates>
-1.3387582438795045,52.06048858337762
</coordinates>
</Point>
</Placemark>
<Placemark>
<name>Starbucks</name>
<styleUrl>#icon-1899-097138-labelson-nodesc</styleUrl>
<Point>
<coordinates>
-0.12204922735691069,51.53085055145226
</coordinates>
</Point>
</Placemark>
<Placemark>
<name>Ashford International Railway Station (AFK) (QDH)</name>
<styleUrl>#icon-1899-097138-labelson-nodesc</styleUrl>
<Point>
<coordinates>
0.8747010102570129,51.1432540845743
</coordinates>
</Point>
</Placemark>
<Placemark>
<name>London St Pancras International Eurostar Terminal</name>
<styleUrl>#icon-1899-097138-labelson-nodesc</styleUrl>
<Point>
<coordinates>
-0.12613641845489332,51.53168808977662
</coordinates>
</Point>
</Placemark>
<Placemark>
<name>Banbury Railway Station (BAN)</name>
<styleUrl>#icon-1899-097138-labelson-nodesc</styleUrl>
<Point>
<coordinates>
-1.3277972035513772,52.060623044099586
</coordinates>
</Point>
</Placemark>
<Placemark>
<name>Morrisons</name>
<styleUrl>#icon-1899-097138-labelson-nodesc</styleUrl>
<Point>
<coordinates>
-1.3323322709862355,52.057530878973566
</coordinates>
</Point>
</Placemark>
<Placemark>
<name>Grosik</name>
<styleUrl>#icon-1899-097138-labelson-nodesc</styleUrl>
<Point>
<coordinates>
-1.339311,52.060449
</coordinates>
</Point>
</Placemark>
<Placemark>
<name>TSB Bank</name>
<styleUrl>#icon-1899-097138-labelson-nodesc</styleUrl>
<Point>
<coordinates>
-1.337644568425162,52.06088014563499
</coordinates>
</Point>
</Placemark>
<Placemark>
<name>Tesco Extra</name>
<styleUrl>#icon-1899-097138-labelson-nodesc</styleUrl>
<Point>
<coordinates>
-1.3395041,52.0743111
</coordinates>
</Point>
</Placemark>
<Placemark>
<name>People's Park</name>
<styleUrl>#icon-1899-097138-labelson-nodesc</styleUrl>
<Point>
<coordinates>
-1.3432903940816763,52.06203282564427
</coordinates>
</Point>
</Placemark>
<Placemark>
<name>Kebabish</name>
<styleUrl>#icon-1899-097138-labelson-nodesc</styleUrl>
<Point>
<coordinates>
-1.335138094529225,52.06008923019438
</coordinates>
</Point>
</Placemark>
<Placemark>
<name>KG International</name>
<styleUrl>#icon-1899-097138-labelson-nodesc</styleUrl>
<Point>
<coordinates>
19.055295,47.502637
</coordinates>
</Point>
</Placemark>
<Placemark>
<name>Határ út (M3)</name>
<styleUrl>#icon-1899-097138-labelson-nodesc</styleUrl>
<Point>
<coordinates>
19.12662863731384,47.46562063699476
</coordinates>
</Point>
</Placemark>
<Placemark>
<name>Ady Endre Út (Báthory Utca) (68,148,151)</name>
<styleUrl>#icon-1899-097138-labelson-nodesc</styleUrl>
<Point>
<coordinates>
19.14108197478899,47.45470456472685
</coordinates>
</Point>
</Placemark>
<Placemark>
<name>Go Print</name>
<styleUrl>#icon-1899-097138-labelson-nodesc</styleUrl>
<Point>
<coordinates>
19.057199693775893,47.51196804382142
</coordinates>
</Point>
</Placemark>
<Placemark>
<name>Írisz Bőrdíszmű</name>
<styleUrl>#icon-1899-097138-labelson-nodesc</styleUrl>
<Point>
<coordinates>
19.0566022681024,47.509990139446565
</coordinates>
</Point>
</Placemark>
<Placemark>
<name>Verebély utca</name>
<styleUrl>#icon-1899-097138-labelson-nodesc</styleUrl>
<Point>
<coordinates>
19.134355384675,47.479679816327916
</coordinates>
</Point>
</Placemark>
<Placemark>
<name>Nehru part</name>
<styleUrl>#icon-1899-097138-labelson-nodesc</styleUrl>
<Point>
<coordinates>
19.0633857168747,47.48220040777675
</coordinates>
</Point>
</Placemark>
<Placemark>
<name>TESCO Hipermarket</name>
<styleUrl>#icon-1899-097138-labelson-nodesc</styleUrl>
<Point>
<coordinates>
19.145856262728685,47.463053260733055
</coordinates>
</Point>
</Placemark>
<Placemark>
<name>Ördög Katlan Sörözö</name>
<styleUrl>#icon-1899-097138-labelson-nodesc</styleUrl>
<Point>
<coordinates>
19.057095706614852,47.49682339709432
</coordinates>
</Point>
</Placemark>
<Placemark>
<name>Deák Ferenc tér</name>
<styleUrl>#icon-1899-097138-labelson-nodesc</styleUrl>
<Point>
<coordinates>
19.054357363556665,47.497443881408394
</coordinates>
</Point>
</Placemark>
<Placemark>
<name>Burger King</name>
<styleUrl>#icon-1899-097138-labelson-nodesc</styleUrl>
<Point>
<coordinates>
19.054183069114018,47.50260495398494
</coordinates>
</Point>
</Placemark>
<Placemark>
<name>CBA Príma</name>
<styleUrl>#icon-1899-097138-labelson-nodesc</styleUrl>
<Point>
<coordinates>
19.0554872497619,47.49777917220175
</coordinates>
</Point>
</Placemark>
<Placemark>
<name>Gyakorló utca 4/g-j</name>
<styleUrl>#icon-1899-097138-labelson-nodesc</styleUrl>
<Point>
<coordinates>
19.140593037055247,47.501634643902676
</coordinates>
</Point>
</Placemark>
<Placemark>
<name>Feneketlen-tó</name>
<styleUrl>#icon-1899-097138-labelson-nodesc</styleUrl>
<Point>
<coordinates>
19.04159188270569,47.476868900803524
</coordinates>
</Point>
</Placemark>
<Placemark>
<name>INTERSPAR</name>
<styleUrl>#icon-1899-097138-labelson-nodesc</styleUrl>
<Point>
<coordinates>
19.049000550751416,47.475299241950985
</coordinates>
</Point>
</Placemark>
<Placemark>
<name>Allee Bevásárlóközpont</name>
<styleUrl>#icon-1899-097138-labelson-nodesc</styleUrl>
<Point>
<coordinates>
19.048983750822984,47.47540787650971
</coordinates>
</Point>
</Placemark>
<Placemark>
<name>Kőbánya alsó vasútállomás M (9, 117, 151, 162, 162A, 185, 217, 262)</name>
<styleUrl>#icon-1899-097138-labelson-nodesc</styleUrl>
<Point>
<coordinates>
19.127615314283222,47.48336731762843
</coordinates>
</Point>
</Placemark>
<Placemark>
<name>Euwork Employment Agency</name>
<styleUrl>#icon-1899-097138-labelson-nodesc</styleUrl>
<Point>
<coordinates>
19.05264804402807,47.48208438467348
</coordinates>
</Point>
</Placemark>
<Placemark>
<name>MiniCopy</name>
<styleUrl>#icon-1899-097138-labelson-nodesc</styleUrl>
<Point>
<coordinates>
19.063139575660493,47.48953171617773
</coordinates>
</Point>
</Placemark>
<Placemark>
<name>Relay</name>
<styleUrl>#icon-1899-097138-labelson-nodesc</styleUrl>
<Point>
<coordinates>
19.14844036102295,47.46255251085674
</coordinates>
</Point>
</Placemark>
<Placemark>
<name>Kisfaludy Strand</name>
<styleUrl>#icon-1899-097138-labelson-nodesc</styleUrl>
<Point>
<coordinates>
17.910124754425105,46.95606537619883
</coordinates>
</Point>
</Placemark>
<Placemark>
<name>Tagore sétány és park</name>
<styleUrl>#icon-1899-097138-labelson-nodesc</styleUrl>
<Point>
<coordinates>
17.894288744959308,46.95418101548392
</coordinates>
</Point>
</Placemark>
<Placemark>
<name>Balatonfüred</name>
<styleUrl>#icon-1899-097138-labelson-nodesc</styleUrl>
<Point>
<coordinates>
17.894505148016925,46.956389468129615
</coordinates>
</Point>
</Placemark>
<Placemark>
<name>M7-es autópálya</name>
<styleUrl>#icon-1899-097138-labelson-nodesc</styleUrl>
<Point>
<coordinates>
18.904037475585938,47.440686021680584
</coordinates>
</Point>
</Placemark>
<Placemark>
<name>Harminckettesek tere (4, 6)</name>
<styleUrl>#icon-1899-097138-labelson-nodesc</styleUrl>
<Point>
<coordinates>
19.07721140890305,47.491346061078474
</coordinates>
</Point>
</Placemark>
<Placemark>
<name>Instant</name>
<styleUrl>#icon-1899-097138-labelson-nodesc</styleUrl>
<Point>
<coordinates>
19.065268925640257,47.50065923417731
</coordinates>
</Point>
</Placemark>
<Placemark>
<name>Sark Kocsma</name>
<styleUrl>#icon-1899-097138-labelson-nodesc</styleUrl>
<Point>
<coordinates>
19.065105,47.498168
</coordinates>
</Point>
</Placemark>
<Placemark>
<name>Centennial Memorial (Centenáriumi emlékmű)</name>
<styleUrl>#icon-1899-097138-labelson-nodesc</styleUrl>
<Point>
<coordinates>
19.044622778892517,47.518102807319146
</coordinates>
</Point>
</Placemark>
<Placemark>
<name>CBA Cent</name>
<styleUrl>#icon-1899-097138-labelson-nodesc</styleUrl>
<Point>
<coordinates>
19.071053266525265,47.49750439902084
</coordinates>
</Point>
</Placemark>
<Placemark>
<name>Babam Török Gyorsétterem</name>
<styleUrl>#icon-1899-097138-labelson-nodesc</styleUrl>
<Point>
<coordinates>
19.070423159836274,47.49681728455797
</coordinates>
</Point>
</Placemark>
<Placemark>
<name>Határ út M (50)</name>
<styleUrl>#icon-1899-097138-labelson-nodesc</styleUrl>
<Point>
<coordinates>
19.127364239193238,47.46516772427519
</coordinates>
</Point>
</Placemark>
<Placemark>
<name>Petőfi híd</name>
<styleUrl>#icon-1899-097138-labelson-nodesc</styleUrl>
<Point>
<coordinates>
19.062974452972412,47.478594726941765
</coordinates>
</Point>
</Placemark>
<Placemark>
<name>Magyar Söröző</name>
<styleUrl>#icon-1899-097138-labelson-nodesc</styleUrl>
<Point>
<coordinates>
19.070256875474684,47.48713180806057
</coordinates>
</Point>
</Placemark>
<Placemark>
<name>MiMozink</name>
<styleUrl>#icon-1899-097138-labelson-nodesc</styleUrl>
<Point>
<coordinates>
19.083983993155694,47.47132636273859
</coordinates>
</Point>
</Placemark>
<Placemark>
<name>Lurdy Ház</name>
<styleUrl>#icon-1899-097138-labelson-nodesc</styleUrl>
<Point>
<coordinates>
19.08374079824318,47.47068294764026
</coordinates>
</Point>
</Placemark>
<Placemark>
<name>Népliget (M3)</name>
<styleUrl>#icon-1899-097138-labelson-nodesc</styleUrl>
<Point>
<coordinates>
19.09918963909149,47.475306181596224
</coordinates>
</Point>
</Placemark>
<Placemark>
<name>Burger King</name>
<styleUrl>#icon-1899-097138-labelson-nodesc</styleUrl>
<Point>
<coordinates>
19.069687718724182,47.497022899479255
</coordinates>
</Point>
</Placemark>
<Placemark>
<name>Hattyúház</name>
<styleUrl>#icon-1899-097138-labelson-nodesc</styleUrl>
<Point>
<coordinates>
19.028722073541836,47.50767936893538
</coordinates>
</Point>
</Placemark>
<Placemark>
<name>Széna Kínai</name>
<styleUrl>#icon-1899-097138-labelson-nodesc</styleUrl>
<Point>
<coordinates>
19.02263595191152,47.50809936920274
</coordinates>
</Point>
</Placemark>
<Placemark>
<name>Burger King</name>
<styleUrl>#icon-1899-097138-labelson-nodesc</styleUrl>
<Point>
<coordinates>
19.0269,47.50732
</coordinates>
</Point>
</Placemark>
<Placemark>
<name>Füge Udvar</name>
<styleUrl>#icon-1899-097138-labelson-nodesc</styleUrl>
<Point>
<coordinates>
19.066593050498643,47.49835439362102
</coordinates>
</Point>
</Placemark>
<Placemark>
<name>Mandala Kert</name>
<styleUrl>#icon-1899-097138-labelson-nodesc</styleUrl>
<Point>
<coordinates>
19.109587753365858,47.508136558398476
</coordinates>
</Point>
</Placemark>
<Placemark>
<name>Miskolc</name>
<styleUrl>#icon-1899-097138-labelson-nodesc</styleUrl>
<Point>
<coordinates>
20.787286402696736,48.102658741660434
</coordinates>
</Point>
</Placemark>
<Placemark>
<name>Ózd, Centrum Buszmegálló</name>
<styleUrl>#icon-1899-097138-labelson-nodesc</styleUrl>
<Point>
<coordinates>
20.280715717468723,48.21927114327456
</coordinates>
</Point>
</Placemark>
<Placemark>
<name>Arló</name>
<styleUrl>#icon-1899-097138-labelson-nodesc</styleUrl>
<Point>
<coordinates>
20.253630490600372,48.173206659755635
</coordinates>
</Point>
</Placemark>
<Placemark>
<name>M3 Autópálya</name>
<styleUrl>#icon-1899-097138-labelson-nodesc</styleUrl>
<Point>
<coordinates>
19.46854591369629,47.633065216779094
</coordinates>
</Point>
</Placemark>
<Placemark>
<name>Schulek Frigyes Szakközépiskola</name>
<styleUrl>#icon-1899-097138-labelson-nodesc</styleUrl>
<Point>
<coordinates>
19.082203145208545,47.4985092379383
</coordinates>
</Point>
</Placemark>
<Placemark>
<name>Iparvasút (50)</name>
<styleUrl>#icon-1899-097138-labelson-nodesc</styleUrl>
<Point>
<coordinates>
19.196191366563674,47.43370686653088
</coordinates>
</Point>
</Placemark>
<Placemark>
<name>CBA</name>
<styleUrl>#icon-1899-097138-labelson-nodesc</styleUrl>
<Point>
<coordinates>
19.055748734414436,47.49311231605514
</coordinates>
</Point>
</Placemark>
<Placemark>
<name>Computer School Számítástechnikai Szakiskola</name>
<styleUrl>#icon-1899-097138-labelson-nodesc</styleUrl>
<Point>
<coordinates>
19.10656322924839,47.49883736377558
</coordinates>
</Point>
</Placemark>
<Placemark>
<name>Óhegy park</name>
<styleUrl>#icon-1899-097138-labelson-nodesc</styleUrl>
<Point>
<coordinates>
19.145221710205078,47.48017547593218
</coordinates>
</Point>
</Placemark>
<Placemark>
<name>Batthyány Csemege (CBA)</name>
<styleUrl>#icon-1899-097138-labelson-nodesc</styleUrl>
<Point>
<coordinates>
19.031457500489896,47.50723716688701
</coordinates>
</Point>
</Placemark>
<Placemark>
<name>Oktogon M (4, 6)</name>
<styleUrl>#icon-1899-097138-labelson-nodesc</styleUrl>
<Point>
<coordinates>
19.062614255153175,47.5058173109262
</coordinates>
</Point>
</Placemark>
<Placemark>
<name>Kolor</name>
<styleUrl>#icon-1899-097138-labelson-nodesc</styleUrl>
<Point>
<coordinates>
19.058361053466797,47.49903927634164
</coordinates>
</Point>
</Placemark>
<Placemark>
<name>Bikás park</name>
<styleUrl>#icon-1899-097138-labelson-nodesc</styleUrl>
<Point>
<coordinates>
19.03220124857408,47.46521299851518
</coordinates>
</Point>
</Placemark>
<Placemark>
<name>One Euro Market</name>
<styleUrl>#icon-1899-097138-labelson-nodesc</styleUrl>
<Point>
<coordinates>
19.02830378349286,47.507973436116885
</coordinates>
</Point>
</Placemark>
<Placemark>
<name>Édenkert</name>
<styleUrl>#icon-1899-097138-labelson-nodesc</styleUrl>
<Point>
<coordinates>
19.028878211974543,47.507379
</coordinates>
</Point>
</Placemark>
<Placemark>
<name>Fini-Mini Pékáru</name>
<styleUrl>#icon-1899-097138-labelson-nodesc</styleUrl>
<Point>
<coordinates>
19.10745430667066,47.50019650309259
</coordinates>
</Point>
</Placemark>
<Placemark>
<name>Gozsdu Manó Klub</name>
<styleUrl>#icon-1899-097138-labelson-nodesc</styleUrl>
<Point>
<coordinates>
19.05913477950944,47.49854389958963
</coordinates>
</Point>
</Placemark>
<Placemark>
<name>Mandarina Shoarma</name>
<styleUrl>#icon-1899-097138-labelson-nodesc</styleUrl>
<Point>
<coordinates>
19.148008951090294,47.46263266820904
</coordinates>
</Point>
</Placemark>
<Placemark>
<name>Széll Kálmán tér (M2)</name>
<styleUrl>#icon-1899-097138-labelson-nodesc</styleUrl>
<Point>
<coordinates>
19.024892449378967,47.506986577412206
</coordinates>
</Point>
</Placemark>
<Placemark>
<name>OTP Bank</name>
<styleUrl>#icon-1899-097138-labelson-nodesc</styleUrl>
<Point>
<coordinates>
19.026103744589705,47.50744720914195
</coordinates>
</Point>
</Placemark>
<Placemark>
<name>T-Pont</name>
<styleUrl>#icon-1899-097138-labelson-nodesc</styleUrl>
<Point>
<coordinates>
19.025906324386597,47.508562848448186
</coordinates>
</Point>
</Placemark>
<Placemark>
<name>Puskás Ferenc Stadion (M2)</name>
<styleUrl>#icon-1899-097138-labelson-nodesc</styleUrl>
<Point>
<coordinates>
19.10598635673523,47.50025699832814
</coordinates>
</Point>
</Placemark>
<Placemark>
<name>Nemzeti Dohánybolt</name>
<styleUrl>#icon-1899-097138-labelson-nodesc</styleUrl>
<Point>
<coordinates>
19.10703251061587,47.500066250627754
</coordinates>
</Point>
</Placemark>
<Placemark>
<name>Princess Pékség</name>
<styleUrl>#icon-1899-097138-labelson-nodesc</styleUrl>
<Point>
<coordinates>
19.107286943052088,47.50031611386381
</coordinates>
</Point>
</Placemark>
<Placemark>
<name>Egressy Gábor Kéttannyelvű Műszaki Szakközépiskola</name>
<styleUrl>#icon-1899-097138-labelson-nodesc</styleUrl>
<Point>
<coordinates>
19.11871130316623,47.51331876781686
</coordinates>
</Point>
</Placemark>
<Placemark>
<name>Nemzeti Dohánybolt</name>
<styleUrl>#icon-1899-097138-labelson-nodesc</styleUrl>
<Point>
<coordinates>
19.02521351747056,47.50758017026975
</coordinates>
</Point>
</Placemark>
<Placemark>
<name>Relay</name>
<styleUrl>#icon-1899-097138-labelson-nodesc</styleUrl>
<Point>
<coordinates>
19.107654526541598,47.50052376964131
</coordinates>
</Point>
</Placemark>
<Placemark>
<name>Starbucks</name>
<styleUrl>#icon-1899-097138-labelson-nodesc</styleUrl>
<Point>
<coordinates>
19.140758514404297,47.50283731586872
</coordinates>
</Point>
</Placemark>
<Placemark>
<name>New Yorker</name>
<styleUrl>#icon-1899-097138-labelson-nodesc</styleUrl>
<Point>
<coordinates>
19.140893358993814,47.50307802497032
</coordinates>
</Point>
</Placemark>
<Placemark>
<name>Garage Store</name>
<styleUrl>#icon-1899-097138-labelson-nodesc</styleUrl>
<Point>
<coordinates>
19.13872743578988,47.50279923692805
</coordinates>
</Point>
</Placemark>
<Placemark>
<name>Széll Kálmán tér</name>
<styleUrl>#icon-1899-097138-labelson-nodesc</styleUrl>
<Point>
<coordinates>
19.024947904584987,47.50704861035401
</coordinates>
</Point>
</Placemark>
<Placemark>
<name>CopyGuru</name>
<styleUrl>#icon-1899-097138-labelson-nodesc</styleUrl>
<Point>
<coordinates>
19.02561516632063,47.50678022815825
</coordinates>
</Point>
</Placemark>
<Placemark>
<name>Jászai Mari tér</name>
<styleUrl>#icon-1899-097138-labelson-nodesc</styleUrl>
<Point>
<coordinates>
19.047696590423584,47.51380225057544
</coordinates>
</Point>
</Placemark>
<Placemark>
<name>OTP Bank</name>
<styleUrl>#icon-1899-097138-labelson-nodesc</styleUrl>
<Point>
<coordinates>
19.06017223943931,47.513882813111536
</coordinates>
</Point>
</Placemark>
<Placemark>
<name>ELTE Északi Tömb</name>
<styleUrl>#icon-1899-097138-labelson-nodesc</styleUrl>
<Point>
<coordinates>
19.061548817521064,47.474416089725054
</coordinates>
</Point>
</Placemark>
<Placemark>
<name>Újbuda-központ M (4)</name>
<styleUrl>#icon-1899-097138-labelson-nodesc</styleUrl>
<Point>
<coordinates>
19.046881149760562,47.47416252957225
</coordinates>
</Point>
</Placemark>
<Placemark>
<name>Istanbul Kebab</name>
<styleUrl>#icon-1899-097138-labelson-nodesc</styleUrl>
<Point>
<coordinates>
19.06124288925235,47.48938674750974
</coordinates>
</Point>
</Placemark>
<Placemark>
<name>Kálvin Square Offices</name>
<styleUrl>#icon-1899-097138-labelson-nodesc</styleUrl>
<Point>
<coordinates>
19.06242191791534,47.48992358540007
</coordinates>
</Point>
</Placemark>
<Placemark>
<name>Euronics</name>
<styleUrl>#icon-1899-097138-labelson-nodesc</styleUrl>
<Point>
<coordinates>
19.146121387045262,47.463059051113405
</coordinates>
</Point>
</Placemark>
<Placemark>
<name>Xeraf's mansion</name>
<styleUrl>#icon-1899-097138-labelson-nodesc</styleUrl>
<Point>
<coordinates>
19.0592,47.4878
</coordinates>
</Point>
</Placemark>
<Placemark>
<name>TESCO Expressz</name>
<styleUrl>#icon-1899-097138-labelson-nodesc</styleUrl>
<Point>
<coordinates>
19.06107342218089,47.49441979638465
</coordinates>
</Point>
</Placemark>
<Placemark>
<name>Mini Copy</name>
<styleUrl>#icon-1899-097138-labelson-nodesc</styleUrl>
<Point>
<coordinates>
19.059791417533255,47.485228021615725
</coordinates>
</Point>
</Placemark>
<Placemark>
<name>Budapest Főváros Kormányhivatala</name>
<styleUrl>#icon-1899-097138-labelson-nodesc</styleUrl>
<Point>
<coordinates>
19.055927118345384,47.48954842596362
</coordinates>
</Point>
</Placemark>
<Placemark>
<name>OTP Bank</name>
<styleUrl>#icon-1899-097138-labelson-nodesc</styleUrl>
<Point>
<coordinates>
19.055088501393808,47.509767193204425
</coordinates>
</Point>
</Placemark>
<Placemark>
<name>Szalay utca 4.</name>
<styleUrl>#icon-1899-097138-labelson-nodesc</styleUrl>
<Point>
<coordinates>
19.04878771178553,47.50875720071831
</coordinates>
</Point>
</Placemark>
<Placemark>
<name>Liberty Bridge (Szabadság híd)</name>
<styleUrl>#icon-1899-097138-labelson-nodesc</styleUrl>
<Point>
<coordinates>
19.054960012435913,47.48572947367426
</coordinates>
</Point>
</Placemark>
<Placemark>
<name>Papp László Budapest Sportaréna</name>
<styleUrl>#icon-1899-097138-labelson-nodesc</styleUrl>
<Point>
<coordinates>
19.105747831261155,47.50186679189264
</coordinates>
</Point>
</Placemark>
<Placemark>
<name>MiR Kebab</name>
<styleUrl>#icon-1899-097138-labelson-nodesc</styleUrl>
<Point>
<coordinates>
19.05614280338163,47.49798375247953
</coordinates>
</Point>
</Placemark>
<Placemark>
<name>Nemzeti Dohánybolt</name>
<styleUrl>#icon-1899-097138-labelson-nodesc</styleUrl>
<Point>
<coordinates>
19.05694417574742,47.498359234821365
</coordinates>
</Point>
</Placemark>
<Placemark>
<name>Dürlin</name>
<styleUrl>#icon-1899-097138-labelson-nodesc</styleUrl>
<Point>
<coordinates>
19.08996243400858,47.508305344329116
</coordinates>
</Point>
</Placemark>
<Placemark>
<name>Ayasofya</name>
<styleUrl>#icon-1899-097138-labelson-nodesc</styleUrl>
<Point>
<coordinates>
19.0569116831549,47.49353421872882
</coordinates>
</Point>
</Placemark>
<Placemark>
<name>Dürer Kert</name>
<styleUrl>#icon-1899-097138-labelson-nodesc</styleUrl>
<Point>
<coordinates>
19.08996061524478,47.509680047594635
</coordinates>
</Point>
</Placemark>
<Placemark>
<name>Lottózó</name>
<styleUrl>#icon-1899-097138-labelson-nodesc</styleUrl>
<Point>
<coordinates>
19.024735705538372,47.5082925095105
</coordinates>
</Point>
</Placemark>
<Placemark>
<name>Starbucks</name>
<styleUrl>#icon-1899-097138-labelson-nodesc</styleUrl>
<Point>
<coordinates>
19.026334211898938,47.508185962937574
</coordinates>
</Point>
</Placemark>
<Placemark>
<name>Dánszentmiklós</name>
<styleUrl>#icon-1899-097138-labelson-nodesc</styleUrl>
<Point>
<coordinates>
19.546927412171204,47.21218921415057
</coordinates>
</Point>
</Placemark>